{"cities":[{"zipCode":1000,"city":"Lausanne 25","lat":46.5182,"long":6.6329,"closestMainCity":{"zipCode":1001,"city":"Lausanne","lat":46.5218,"long":6.633}},{"zipCode":1000,"city":"Lausanne 26","lat":46.5182,"long":6.6329,"closestMainCity":{"zipCode":1001,"city":"Lausanne","lat":46.5218,"long":6.633}},{"zipCode":1000,"city":"Lausanne 27","lat":46.5182,"long":6.6329,"closestMainCity":{"zipCode":1001,"city":"Lausanne","lat":46.5218,"long":6.633}},{"zipCode":1001,"city":"Lausanne","lat":46.5218,"long":6.633,"closestMainCity":{"zipCode":1001,"city":"Lausanne","lat":46.5218,"long":6.633}},{"zipCode":1002,"city":"Lausanne","lat":46.5218,"long":6.633,"closestMainCity":{"zipCode":1001,"city":"Lausanne","lat":46.5218,"long":6.633}},{"zipCode":1003,"city":"Lausanne","lat":46.516,"long":6.6328,"closestMainCity":{"zipCode":1001,"city":"Lausanne","lat":46.5218,"long":6.633}},{"zipCode":1004,"city":"Lausanne","lat":46.516,"long":6.6328,"closestMainCity":{"zipCode":1001,"city":"Lausanne","lat":46.5218,"long":6.633}},{"zipCode":1005,"city":"Lausanne","lat":46.516,"long":6.6328,"closestMainCity":{"zipCode":1001,"city":"Lausanne","lat":46.5218,"long":6.633}},{"zipCode":1006,"city":"Lausanne","lat":46.516,"long":6.6328,"closestMainCity":{"zipCode":1001,"city":"Lausanne","lat":46.5218,"long":6.633}},{"zipCode":1007,"city":"Lausanne","lat":46.516,"long":6.6328,"closestMainCity":{"zipCode":1001,"city":"Lausanne","lat":46.5218,"long":6.633}},{"zipCode":1008,"city":"Jouxtens-Mézery","lat":46.5556,"long":6.6437,"closestMainCity":{"zipCode":1001,"city":"Lausanne","lat":46.5218,"long":6.633}},{"zipCode":1008,"city":"Prilly","lat":46.537,"long":6.6046,"closestMainCity":{"zipCode":1001,"city":"Lausanne","lat":46.5218,"long":6.633}},{"zipCode":1009,"city":"Pully","lat":46.5103,"long":6.6618,"closestMainCity":{"zipCode":1001,"city":"Lausanne","lat":46.5218,"long":6.633}},{"zipCode":1010,"city":"Lausanne","lat":46.516,"long":6.6328,"closestMainCity":{"zipCode":1001,"city":"Lausanne","lat":46.5218,"long":6.633}},{"zipCode":1011,"city":"Lausanne","lat":46.516,"long":6.6328,"closestMainCity":{"zipCode":1001,"city":"Lausanne","lat":46.5218,"long":6.633}},{"zipCode":1012,"city":"Lausanne","lat":46.516,"long":6.6328,"closestMainCity":{"zipCode":1001,"city":"Lausanne","lat":46.5218,"long":6.633}},{"zipCode":1014,"city":"Lausanne Adm cant","lat":46.5218,"long":6.633,"closestMainCity":{"zipCode":1001,"city":"Lausanne","lat":46.5218,"long":6.633}},{"zipCode":1015,"city":"Lausanne","lat":46.516,"long":6.6328,"closestMainCity":{"zipCode":1001,"city":"Lausanne","lat":46.5218,"long":6.633}},{"zipCode":1017,"city":"Lausanne Veillon","lat":46.5218,"long":6.633,"closestMainCity":{"zipCode":1001,"city":"Lausanne","lat":46.5218,"long":6.633}},{"zipCode":1018,"city":"Lausanne","lat":46.516,"long":6.6328,"closestMainCity":{"zipCode":1001,"city":"Lausanne","lat":46.5218,"long":6.633}},{"zipCode":1019,"city":"Lausanne","lat":46.5218,"long":6.633,"closestMainCity":{"zipCode":1001,"city":"Lausanne","lat":46.5218,"long":6.633}},{"zipCode":1020,"city":"Renens VD","lat":46.5399,"long":6.5881,"closestMainCity":{"zipCode":1001,"city":"Lausanne","lat":46.5218,"long":6.633}},{"zipCode":1022,"city":"Chavannes-près-Renens","lat":46.5301,"long":6.5707,"closestMainCity":{"zipCode":1001,"city":"Lausanne","lat":46.5218,"long":6.633}},{"zipCode":1023,"city":"Crissier","lat":46.5459,"long":6.5757,"closestMainCity":{"zipCode":1001,"city":"Lausanne","lat":46.5218,"long":6.633}},{"zipCode":1024,"city":"Ecublens VD","lat":46.529,"long":6.5626,"closestMainCity":{"zipCode":1110,"city":"Morges","lat":46.5113,"long":6.4985}},{"zipCode":1025,"city":"St-Sulpice VD","lat":46.5105,"long":6.559,"closestMainCity":{"zipCode":1110,"city":"Morges","lat":46.5113,"long":6.4985}},{"zipCode":1026,"city":"Denges","lat":46.522,"long":6.5393,"closestMainCity":{"zipCode":1110,"city":"Morges","lat":46.5113,"long":6.4985}},{"zipCode":1026,"city":"Echandens","lat":46.5397,"long":6.5379,"closestMainCity":{"zipCode":1110,"city":"Morges","lat":46.5113,"long":6.4985}},{"zipCode":1027,"city":"Lonay","lat":46.5288,"long":6.5194,"closestMainCity":{"zipCode":1110,"city":"Morges","lat":46.5113,"long":6.4985}},{"zipCode":1028,"city":"Préverenges","lat":46.5185,"long":6.5268,"closestMainCity":{"zipCode":1110,"city":"Morges","lat":46.5113,"long":6.4985}},{"zipCode":1029,"city":"Villars-Ste-Croix","lat":46.5656,"long":6.5633,"closestMainCity":{"zipCode":1001,"city":"Lausanne","lat":46.5218,"long":6.633}},{"zipCode":1030,"city":"Bussigny","lat":46.5511,"long":6.556,"closestMainCity":{"zipCode":1110,"city":"Morges","lat":46.5113,"long":6.4985}},{"zipCode":1031,"city":"Mex VD","lat":46.5759,"long":6.5545,"closestMainCity":{"zipCode":1110,"city":"Morges","lat":46.5113,"long":6.4985}},{"zipCode":1032,"city":"Romanel-sur-Lausanne","lat":46.564,"long":6.6054,"closestMainCity":{"zipCode":1001,"city":"Lausanne","lat":46.5218,"long":6.633}},{"zipCode":1033,"city":"Cheseaux-sur-Lausanne","lat":46.5862,"long":6.6059,"closestMainCity":{"zipCode":1001,"city":"Lausanne","lat":46.5218,"long":6.633}},{"zipCode":1034,"city":"Boussens","lat":46.6033,"long":6.586,"closestMainCity":{"zipCode":1001,"city":"Lausanne","lat":46.5218,"long":6.633}},{"zipCode":1035,"city":"Bournens","lat":46.6049,"long":6.5648,"closestMainCity":{"zipCode":1001,"city":"Lausanne","lat":46.5218,"long":6.633}},{"zipCode":1036,"city":"Sullens","lat":46.5956,"long":6.5669,"closestMainCity":{"zipCode":1001,"city":"Lausanne","lat":46.5218,"long":6.633}},{"zipCode":1037,"city":"Etagnières","lat":46.6015,"long":6.6065,"closestMainCity":{"zipCode":1001,"city":"Lausanne","lat":46.5218,"long":6.633}},{"zipCode":1038,"city":"Bercher","lat":46.6914,"long":6.7076,"closestMainCity":{"zipCode":1400,"city":"Yverdon-les-Bains","lat":46.7785,"long":6.6411}},{"zipCode":1039,"city":"Cheseaux Polyval","lat":46.5845,"long":6.5955,"closestMainCity":{"zipCode":1001,"city":"Lausanne","lat":46.5218,"long":6.633}},{"zipCode":1040,"city":"Villars-le-Terroir","lat":46.6582,"long":6.6439,"closestMainCity":{"zipCode":1400,"city":"Yverdon-les-Bains","lat":46.7785,"long":6.6411}},{"zipCode":1040,"city":"St-Barthélemy VD","lat":46.6349,"long":6.6021,"closestMainCity":{"zipCode":1001,"city":"Lausanne","lat":46.5218,"long":6.633}},{"zipCode":1040,"city":"Echallens","lat":46.6413,"long":6.6332,"closestMainCity":{"zipCode":1001,"city":"Lausanne","lat":46.5218,"long":6.633}},{"zipCode":1041,"city":"Naz","lat":46.6588,"long":6.694,"closestMainCity":{"zipCode":1400,"city":"Yverdon-les-Bains","lat":46.7785,"long":6.6411}},{"zipCode":1041,"city":"Dommartin","lat":46.6485,"long":6.7023,"closestMainCity":{"zipCode":1001,"city":"Lausanne","lat":46.5218,"long":6.633}},{"zipCode":1041,"city":"Poliez-Pittet","lat":46.6273,"long":6.6881,"closestMainCity":{"zipCode":1001,"city":"Lausanne","lat":46.5218,"long":6.633}},{"zipCode":1041,"city":"Poliez-le-Grand","lat":46.6354,"long":6.6662,"closestMainCity":{"zipCode":1001,"city":"Lausanne","lat":46.5218,"long":6.633}},{"zipCode":1041,"city":"Montaubion-Chardonney","lat":46.6456,"long":6.7139,"closestMainCity":{"zipCode":1001,"city":"Lausanne","lat":46.5218,"long":6.633}},{"zipCode":1041,"city":"Bottens","lat":46.616,"long":6.6615,"closestMainCity":{"zipCode":1001,"city":"Lausanne","lat":46.5218,"long":6.633}},{"zipCode":1042,"city":"Bettens","lat":46.6283,"long":6.5734,"closestMainCity":{"zipCode":1001,"city":"Lausanne","lat":46.5218,"long":6.633}},{"zipCode":1042,"city":"Bioley-Orjulaz","lat":46.6214,"long":6.5985,"closestMainCity":{"zipCode":1001,"city":"Lausanne","lat":46.5218,"long":6.633}},{"zipCode":1042,"city":"Assens","lat":46.613,"long":6.6218,"closestMainCity":{"zipCode":1001,"city":"Lausanne","lat":46.5218,"long":6.633}},{"zipCode":1043,"city":"Sugnens","lat":46.6551,"long":6.6714,"closestMainCity":{"zipCode":1400,"city":"Yverdon-les-Bains","lat":46.7785,"long":6.6411}},{"zipCode":1044,"city":"Fey","lat":46.6729,"long":6.6801,"closestMainCity":{"zipCode":1400,"city":"Yverdon-les-Bains","lat":46.7785,"long":6.6411}},{"zipCode":1045,"city":"Ogens","lat":46.7084,"long":6.7245,"closestMainCity":{"zipCode":1400,"city":"Yverdon-les-Bains","lat":46.7785,"long":6.6411}},{"zipCode":1046,"city":"Rueyres","lat":46.6934,"long":6.6921,"closestMainCity":{"zipCode":1400,"city":"Yverdon-les-Bains","lat":46.7785,"long":6.6411}},{"zipCode":1047,"city":"Oppens","lat":46.714,"long":6.6917,"closestMainCity":{"zipCode":1400,"city":"Yverdon-les-Bains","lat":46.7785,"long":6.6411}},{"zipCode":1052,"city":"Le Mont-sur-Lausanne","lat":46.5582,"long":6.6315,"closestMainCity":{"zipCode":1001,"city":"Lausanne","lat":46.5218,"long":6.633}},{"zipCode":1053,"city":"Bretigny-sur-Morrens","lat":46.5998,"long":6.6431,"closestMainCity":{"zipCode":1001,"city":"Lausanne","lat":46.5218,"long":6.633}},{"zipCode":1053,"city":"Cugy VD","lat":46.5862,"long":6.6409,"closestMainCity":{"zipCode":1001,"city":"Lausanne","lat":46.5218,"long":6.633}},{"zipCode":1054,"city":"Morrens VD","lat":46.5909,"long":6.6223,"closestMainCity":{"zipCode":1001,"city":"Lausanne","lat":46.5218,"long":6.633}},{"zipCode":1055,"city":"Froideville","lat":46.6012,"long":6.6809,"closestMainCity":{"zipCode":1001,"city":"Lausanne","lat":46.5218,"long":6.633}},{"zipCode":1058,"city":"Villars-Tiercelin","lat":46.6251,"long":6.7038,"closestMainCity":{"zipCode":1001,"city":"Lausanne","lat":46.5218,"long":6.633}},{"zipCode":1059,"city":"Peney-le-Jorat","lat":46.6323,"long":6.7288,"closestMainCity":{"zipCode":1001,"city":"Lausanne","lat":46.5218,"long":6.633}},{"zipCode":1061,"city":"Villars-Mendraz","lat":46.6459,"long":6.7296,"closestMainCity":{"zipCode":1001,"city":"Lausanne","lat":46.5218,"long":6.633}},{"zipCode":1062,"city":"Sottens","lat":46.6552,"long":6.742,"closestMainCity":{"zipCode":1400,"city":"Yverdon-les-Bains","lat":46.7785,"long":6.6411}},{"zipCode":1063,"city":"Boulens","lat":46.6789,"long":6.7183,"closestMainCity":{"zipCode":1400,"city":"Yverdon-les-Bains","lat":46.7785,"long":6.6411}},{"zipCode":1063,"city":"Martherenges","lat":46.6623,"long":6.7557,"closestMainCity":{"zipCode":1400,"city":"Yverdon-les-Bains","lat":46.7785,"long":6.6411}},{"zipCode":1063,"city":"Chapelle-sur-Moudon","lat":46.6696,"long":6.7357,"closestMainCity":{"zipCode":1400,"city":"Yverdon-les-Bains","lat":46.7785,"long":6.6411}},{"zipCode":1063,"city":"Peyres-Possens","lat":46.6703,"long":6.7366,"closestMainCity":{"zipCode":1400,"city":"Yverdon-les-Bains","lat":46.7785,"long":6.6411}},{"zipCode":1066,"city":"Epalinges","lat":46.549,"long":6.6683,"closestMainCity":{"zipCode":1001,"city":"Lausanne","lat":46.5218,"long":6.633}},{"zipCode":1068,"city":"Les Monts-de-Pully","lat":46.5373,"long":6.6876,"closestMainCity":{"zipCode":1001,"city":"Lausanne","lat":46.5218,"long":6.633}},{"zipCode":1070,"city":"Puidoux","lat":46.5009,"long":6.7825,"closestMainCity":{"zipCode":1001,"city":"Lausanne","lat":46.5218,"long":6.633}},{"zipCode":1071,"city":"Rivaz","lat":46.4763,"long":6.7788,"closestMainCity":{"zipCode":1820,"city":"Montreux","lat":46.433,"long":6.9114}},{"zipCode":1071,"city":"Chexbres","lat":46.4821,"long":6.778,"closestMainCity":{"zipCode":1820,"city":"Montreux","lat":46.433,"long":6.9114}},{"zipCode":1071,"city":"St-Saphorin (Lavaux)","lat":46.4733,"long":6.796,"closestMainCity":{"zipCode":1820,"city":"Montreux","lat":46.433,"long":6.9114}},{"zipCode":1072,"city":"Forel (Lavaux)","lat":46.5379,"long":6.7629,"closestMainCity":{"zipCode":1001,"city":"Lausanne","lat":46.5218,"long":6.633}},{"zipCode":1073,"city":"Savigny","lat":46.5384,"long":6.7322,"closestMainCity":{"zipCode":1001,"city":"Lausanne","lat":46.5218,"long":6.633}},{"zipCode":1073,"city":"Mollie-Margot","lat":46.558,"long":6.7513,"closestMainCity":{"zipCode":1001,"city":"Lausanne","lat":46.5218,"long":6.633}},{"zipCode":1076,"city":"Ferlens VD","lat":46.5881,"long":6.7808,"closestMainCity":{"zipCode":1001,"city":"Lausanne","lat":46.5218,"long":6.633}},{"zipCode":1077,"city":"Servion","lat":46.5731,"long":6.7494,"closestMainCity":{"zipCode":1001,"city":"Lausanne","lat":46.5218,"long":6.633}},{"zipCode":1078,"city":"Essertes","lat":46.5619,"long":6.7864,"closestMainCity":{"zipCode":1001,"city":"Lausanne","lat":46.5218,"long":6.633}},{"zipCode":1080,"city":"Les Cullayes","lat":46.5731,"long":6.7494,"closestMainCity":{"zipCode":1001,"city":"Lausanne","lat":46.5218,"long":6.633}},{"zipCode":1081,"city":"Montpreveyres","lat":46.5826,"long":6.7411,"closestMainCity":{"zipCode":1001,"city":"Lausanne","lat":46.5218,"long":6.633}},{"zipCode":1082,"city":"Corcelles-le-Jorat","lat":46.6013,"long":6.7309,"closestMainCity":{"zipCode":1001,"city":"Lausanne","lat":46.5218,"long":6.633}},{"zipCode":1083,"city":"Mézières VD","lat":46.5915,"long":6.7657,"closestMainCity":{"zipCode":1001,"city":"Lausanne","lat":46.5218,"long":6.633}},{"zipCode":1084,"city":"Carrouge VD","lat":46.5377,"long":6.7677,"closestMainCity":{"zipCode":1001,"city":"Lausanne","lat":46.5218,"long":6.633}},{"zipCode":1085,"city":"Vulliens","lat":46.6225,"long":6.7935,"closestMainCity":{"zipCode":1001,"city":"Lausanne","lat":46.5218,"long":6.633}},{"zipCode":1088,"city":"Ropraz","lat":46.6146,"long":6.7535,"closestMainCity":{"zipCode":1001,"city":"Lausanne","lat":46.5218,"long":6.633}},{"zipCode":1090,"city":"La Croix (Lutry)","lat":46.5179,"long":6.7036,"closestMainCity":{"zipCode":1001,"city":"Lausanne","lat":46.5218,"long":6.633}},{"zipCode":1091,"city":"Aran","lat":46.4993,"long":6.7104,"closestMainCity":{"zipCode":1001,"city":"Lausanne","lat":46.5218,"long":6.633}},{"zipCode":1091,"city":"Grandvaux","lat":46.4938,"long":6.7161,"closestMainCity":{"zipCode":1001,"city":"Lausanne","lat":46.5218,"long":6.633}},{"zipCode":1091,"city":"Chenaux","lat":46.4957,"long":6.7302,"closestMainCity":{"zipCode":1001,"city":"Lausanne","lat":46.5218,"long":6.633}},{"zipCode":1092,"city":"Belmont-sur-Lausanne","lat":46.5189,"long":6.6764,"closestMainCity":{"zipCode":1001,"city":"Lausanne","lat":46.5218,"long":6.633}},{"zipCode":1093,"city":"La Conversion","lat":46.5128,"long":6.6774,"closestMainCity":{"zipCode":1001,"city":"Lausanne","lat":46.5218,"long":6.633}},{"zipCode":1094,"city":"Paudex","lat":46.5055,"long":6.6682,"closestMainCity":{"zipCode":1001,"city":"Lausanne","lat":46.5218,"long":6.633}},{"zipCode":1095,"city":"Lutry","lat":46.5024,"long":6.6865,"closestMainCity":{"zipCode":1001,"city":"Lausanne","lat":46.5218,"long":6.633}},{"zipCode":1096,"city":"Villette (Lavaux)","lat":46.4957,"long":6.709,"closestMainCity":{"zipCode":1001,"city":"Lausanne","lat":46.5218,"long":6.633}},{"zipCode":1096,"city":"Cully","lat":46.4889,"long":6.7294,"closestMainCity":{"zipCode":1001,"city":"Lausanne","lat":46.5218,"long":6.633}},{"zipCode":1097,"city":"Riex","lat":46.4935,"long":6.7356,"closestMainCity":{"zipCode":1001,"city":"Lausanne","lat":46.5218,"long":6.633}},{"zipCode":1098,"city":"Epesses","lat":46.4913,"long":6.7478,"closestMainCity":{"zipCode":1001,"city":"Lausanne","lat":46.5218,"long":6.633}},{"zipCode":1110,"city":"Morges","lat":46.5113,"long":6.4985,"closestMainCity":{"zipCode":1110,"city":"Morges","lat":46.5113,"long":6.4985}},{"zipCode":1112,"city":"Echichens","lat":46.5303,"long":6.4968,"closestMainCity":{"zipCode":1110,"city":"Morges","lat":46.5113,"long":6.4985}},{"zipCode":1113,"city":"St-Saphorin-sur-Morges","lat":46.5469,"long":6.4885,"closestMainCity":{"zipCode":1110,"city":"Morges","lat":46.5113,"long":6.4985}},{"zipCode":1114,"city":"Colombier VD","lat":46.5571,"long":6.4728,"closestMainCity":{"zipCode":1110,"city":"Morges","lat":46.5113,"long":6.4985}},{"zipCode":1115,"city":"Vullierens","lat":46.574,"long":6.4819,"closestMainCity":{"zipCode":1110,"city":"Morges","lat":46.5113,"long":6.4985}},{"zipCode":1116,"city":"Cottens VD","lat":46.5725,"long":6.4564,"closestMainCity":{"zipCode":1110,"city":"Morges","lat":46.5113,"long":6.4985}},{"zipCode":1117,"city":"Grancy","lat":46.5921,"long":6.4639,"closestMainCity":{"zipCode":1110,"city":"Morges","lat":46.5113,"long":6.4985}},{"zipCode":1121,"city":"Bremblens","lat":46.5483,"long":6.5194,"closestMainCity":{"zipCode":1110,"city":"Morges","lat":46.5113,"long":6.4985}},{"zipCode":1122,"city":"Romanel-sur-Morges","lat":46.5561,"long":6.5104,"closestMainCity":{"zipCode":1110,"city":"Morges","lat":46.5113,"long":6.4985}},{"zipCode":1123,"city":"Aclens","lat":46.5663,"long":6.5115,"closestMainCity":{"zipCode":1110,"city":"Morges","lat":46.5113,"long":6.4985}},{"zipCode":1124,"city":"Gollion","lat":46.5852,"long":6.5097,"closestMainCity":{"zipCode":1110,"city":"Morges","lat":46.5113,"long":6.4985}},{"zipCode":1125,"city":"Monnaz","lat":46.5325,"long":6.4806,"closestMainCity":{"zipCode":1110,"city":"Morges","lat":46.5113,"long":6.4985}},{"zipCode":1126,"city":"Vaux-sur-Morges","lat":46.5385,"long":6.4639,"closestMainCity":{"zipCode":1110,"city":"Morges","lat":46.5113,"long":6.4985}},{"zipCode":1127,"city":"Clarmont","lat":46.5464,"long":6.4495,"closestMainCity":{"zipCode":1110,"city":"Morges","lat":46.5113,"long":6.4985}},{"zipCode":1128,"city":"Reverolle","lat":46.5428,"long":6.4405,"closestMainCity":{"zipCode":1110,"city":"Morges","lat":46.5113,"long":6.4985}},{"zipCode":1131,"city":"Tolochenaz","lat":46.505,"long":6.4728,"closestMainCity":{"zipCode":1110,"city":"Morges","lat":46.5113,"long":6.4985}},{"zipCode":1132,"city":"Lully VD","lat":46.5051,"long":6.4648,"closestMainCity":{"zipCode":1110,"city":"Morges","lat":46.5113,"long":6.4985}},{"zipCode":1134,"city":"Chigny","lat":46.5197,"long":6.4766,"closestMainCity":{"zipCode":1110,"city":"Morges","lat":46.5113,"long":6.4985}},{"zipCode":1134,"city":"Vufflens-le-Château","lat":46.5263,"long":6.4721,"closestMainCity":{"zipCode":1110,"city":"Morges","lat":46.5113,"long":6.4985}},{"zipCode":1135,"city":"Denens","lat":46.5177,"long":6.4529,"closestMainCity":{"zipCode":1110,"city":"Morges","lat":46.5113,"long":6.4985}},{"zipCode":1136,"city":"Bussy-Chardonney","lat":46.5305,"long":6.4425,"closestMainCity":{"zipCode":1110,"city":"Morges","lat":46.5113,"long":6.4985}},{"zipCode":1141,"city":"Sévery","lat":46.5735,"long":6.4417,"closestMainCity":{"zipCode":1110,"city":"Morges","lat":46.5113,"long":6.4985}},{"zipCode":1142,"city":"Pampigny","lat":46.5809,"long":6.4294,"closestMainCity":{"zipCode":1110,"city":"Morges","lat":46.5113,"long":6.4985}},{"zipCode":1143,"city":"Apples","lat":46.5524,"long":6.4289,"closestMainCity":{"zipCode":1110,"city":"Morges","lat":46.5113,"long":6.4985}},{"zipCode":1144,"city":"Ballens","lat":46.5548,"long":6.3731,"closestMainCity":{"zipCode":1110,"city":"Morges","lat":46.5113,"long":6.4985}},{"zipCode":1145,"city":"Bière","lat":46.5376,"long":6.3336,"closestMainCity":{"zipCode":1110,"city":"Morges","lat":46.5113,"long":6.4985}},{"zipCode":1146,"city":"Mollens VD","lat":46.5776,"long":6.3632,"closestMainCity":{"zipCode":1110,"city":"Morges","lat":46.5113,"long":6.4985}},{"zipCode":1147,"city":"Montricher","lat":46.5996,"long":6.3767,"closestMainCity":{"zipCode":1110,"city":"Morges","lat":46.5113,"long":6.4985}},{"zipCode":1148,"city":"La Praz","lat":46.6675,"long":6.4271,"closestMainCity":{"zipCode":1110,"city":"Morges","lat":46.5113,"long":6.4985}},{"zipCode":1148,"city":"Villars-Bozon","lat":46.6065,"long":6.4067,"closestMainCity":{"zipCode":1110,"city":"Morges","lat":46.5113,"long":6.4985}},{"zipCode":1148,"city":"Cuarnens","lat":46.6255,"long":6.4371,"closestMainCity":{"zipCode":1110,"city":"Morges","lat":46.5113,"long":6.4985}},{"zipCode":1148,"city":"Moiry VD","lat":46.6491,"long":6.4534,"closestMainCity":{"zipCode":1110,"city":"Morges","lat":46.5113,"long":6.4985}},{"zipCode":1148,"city":"Mauraz","lat":46.6056,"long":6.4207,"closestMainCity":{"zipCode":1110,"city":"Morges","lat":46.5113,"long":6.4985}},{"zipCode":1148,"city":"Mont-la-Ville","lat":46.6466,"long":6.409,"closestMainCity":{"zipCode":1110,"city":"Morges","lat":46.5113,"long":6.4985}},{"zipCode":1148,"city":"Chavannes-le-Veyron","lat":46.607,"long":6.4509,"closestMainCity":{"zipCode":1110,"city":"Morges","lat":46.5113,"long":6.4985}},{"zipCode":1148,"city":"La Coudre","lat":46.6404,"long":6.4036,"closestMainCity":{"zipCode":1110,"city":"Morges","lat":46.5113,"long":6.4985}},{"zipCode":1148,"city":"L'Isle","lat":46.6184,"long":6.4133,"closestMainCity":{"zipCode":1110,"city":"Morges","lat":46.5113,"long":6.4985}},{"zipCode":1149,"city":"Berolle","lat":46.558,"long":6.3355,"closestMainCity":{"zipCode":1110,"city":"Morges","lat":46.5113,"long":6.4985}},{"zipCode":1162,"city":"St-Prex","lat":46.4796,"long":6.4599,"closestMainCity":{"zipCode":1110,"city":"Morges","lat":46.5113,"long":6.4985}},{"zipCode":1163,"city":"Etoy","lat":46.4859,"long":6.4182,"closestMainCity":{"zipCode":1110,"city":"Morges","lat":46.5113,"long":6.4985}},{"zipCode":1164,"city":"Buchillon","lat":46.4698,"long":6.4178,"closestMainCity":{"zipCode":1110,"city":"Morges","lat":46.5113,"long":6.4985}},{"zipCode":1165,"city":"Allaman","lat":46.4701,"long":6.3964,"closestMainCity":{"zipCode":1110,"city":"Morges","lat":46.5113,"long":6.4985}},{"zipCode":1166,"city":"Perroy","lat":46.4669,"long":6.3535,"closestMainCity":{"zipCode":1110,"city":"Morges","lat":46.5113,"long":6.4985}},{"zipCode":1167,"city":"Lussy-sur-Morges","lat":46.5041,"long":6.45,"closestMainCity":{"zipCode":1110,"city":"Morges","lat":46.5113,"long":6.4985}},{"zipCode":1168,"city":"Villars-sous-Yens","lat":46.5092,"long":6.4293,"closestMainCity":{"zipCode":1110,"city":"Morges","lat":46.5113,"long":6.4985}},{"zipCode":1169,"city":"Yens","lat":46.519,"long":6.4185,"closestMainCity":{"zipCode":1110,"city":"Morges","lat":46.5113,"long":6.4985}},{"zipCode":1170,"city":"Aubonne","lat":46.4951,"long":6.3916,"closestMainCity":{"zipCode":1110,"city":"Morges","lat":46.5113,"long":6.4985}},{"zipCode":1172,"city":"Bougy-Villars","lat":46.4819,"long":6.3536,"closestMainCity":{"zipCode":1110,"city":"Morges","lat":46.5113,"long":6.4985}},{"zipCode":1173,"city":"Féchy","lat":46.4788,"long":6.3728,"closestMainCity":{"zipCode":1110,"city":"Morges","lat":46.5113,"long":6.4985}},{"zipCode":1174,"city":"Montherod","lat":46.5017,"long":6.3615,"closestMainCity":{"zipCode":1110,"city":"Morges","lat":46.5113,"long":6.4985}},{"zipCode":1174,"city":"Pizy","lat":46.4939,"long":6.3478,"closestMainCity":{"zipCode":1110,"city":"Morges","lat":46.5113,"long":6.4985}},{"zipCode":1175,"city":"Lavigny","lat":46.5012,"long":6.4109,"closestMainCity":{"zipCode":1110,"city":"Morges","lat":46.5113,"long":6.4985}},{"zipCode":1176,"city":"St-Livres","lat":46.5079,"long":6.3875,"closestMainCity":{"zipCode":1110,"city":"Morges","lat":46.5113,"long":6.4985}},{"zipCode":1180,"city":"Tartegnin","lat":46.4662,"long":6.3125,"closestMainCity":{"zipCode":1110,"city":"Morges","lat":46.5113,"long":6.4985}},{"zipCode":1180,"city":"Rolle","lat":46.4582,"long":6.335,"closestMainCity":{"zipCode":1110,"city":"Morges","lat":46.5113,"long":6.4985}},{"zipCode":1182,"city":"Gilly","lat":46.4578,"long":6.2965,"closestMainCity":{"zipCode":1110,"city":"Morges","lat":46.5113,"long":6.4985}},{"zipCode":1183,"city":"Bursins","lat":46.4528,"long":6.2914,"closestMainCity":{"zipCode":1110,"city":"Morges","lat":46.5113,"long":6.4985}},{"zipCode":1184,"city":"Vinzel","lat":46.4483,"long":6.2782,"closestMainCity":{"zipCode":1110,"city":"Morges","lat":46.5113,"long":6.4985}},{"zipCode":1184,"city":"Luins","lat":46.442,"long":6.2727,"closestMainCity":{"zipCode":1110,"city":"Morges","lat":46.5113,"long":6.4985}},{"zipCode":1185,"city":"Mont-sur-Rolle","lat":46.4702,"long":6.3352,"closestMainCity":{"zipCode":1110,"city":"Morges","lat":46.5113,"long":6.4985}},{"zipCode":1186,"city":"Essertines-sur-Rolle","lat":46.4931,"long":6.3177,"closestMainCity":{"zipCode":1110,"city":"Morges","lat":46.5113,"long":6.4985}},{"zipCode":1187,"city":"St-Oyens","lat":46.4994,"long":6.3033,"closestMainCity":{"zipCode":1110,"city":"Morges","lat":46.5113,"long":6.4985}},{"zipCode":1188,"city":"Gimel","lat":46.5095,"long":6.3074,"closestMainCity":{"zipCode":1110,"city":"Morges","lat":46.5113,"long":6.4985}},{"zipCode":1188,"city":"St-George","lat":46.5143,"long":6.2598,"closestMainCity":{"zipCode":1110,"city":"Morges","lat":46.5113,"long":6.4985}},{"zipCode":1189,"city":"Saubraz","lat":46.5161,"long":6.3302,"closestMainCity":{"zipCode":1110,"city":"Morges","lat":46.5113,"long":6.4985}},{"zipCode":1195,"city":"Dully","lat":46.4314,"long":6.2946,"closestMainCity":{"zipCode":1110,"city":"Morges","lat":46.5113,"long":6.4985}},{"zipCode":1195,"city":"Bursinel","lat":46.4396,"long":6.3058,"closestMainCity":{"zipCode":1110,"city":"Morges","lat":46.5113,"long":6.4985}},{"zipCode":1196,"city":"Gland","lat":46.4208,"long":6.2701,"closestMainCity":{"zipCode":1110,"city":"Morges","lat":46.5113,"long":6.4985}},{"zipCode":1197,"city":"Prangins","lat":46.3952,"long":6.2496,"closestMainCity":{"zipCode":1200,"city":"Genève","lat":46.2058,"long":6.1416}},{"zipCode":1200,"city":"Genève","lat":46.2058,"long":6.1416,"closestMainCity":{"zipCode":1200,"city":"Genève","lat":46.2058,"long":6.1416}},{"zipCode":1201,"city":"Genève","lat":46.2022,"long":6.1457,"closestMainCity":{"zipCode":1200,"city":"Genève","lat":46.2058,"long":6.1416}},{"zipCode":1202,"city":"Genève","lat":46.2022,"long":6.1457,"closestMainCity":{"zipCode":1200,"city":"Genève","lat":46.2058,"long":6.1416}},{"zipCode":1203,"city":"Genève","lat":46.2022,"long":6.1457,"closestMainCity":{"zipCode":1200,"city":"Genève","lat":46.2058,"long":6.1416}},{"zipCode":1204,"city":"Genève","lat":46.2022,"long":6.1457,"closestMainCity":{"zipCode":1200,"city":"Genève","lat":46.2058,"long":6.1416}},{"zipCode":1205,"city":"Genève","lat":46.2022,"long":6.1457,"closestMainCity":{"zipCode":1200,"city":"Genève","lat":46.2058,"long":6.1416}},{"zipCode":1206,"city":"Genève","lat":46.2022,"long":6.1457,"closestMainCity":{"zipCode":1200,"city":"Genève","lat":46.2058,"long":6.1416}},{"zipCode":1207,"city":"Genève","lat":46.2022,"long":6.1457,"closestMainCity":{"zipCode":1200,"city":"Genève","lat":46.2058,"long":6.1416}},{"zipCode":1208,"city":"Genève","lat":46.2022,"long":6.1457,"closestMainCity":{"zipCode":1200,"city":"Genève","lat":46.2058,"long":6.1416}},{"zipCode":1209,"city":"Genève","lat":46.2022,"long":6.1457,"closestMainCity":{"zipCode":1200,"city":"Genève","lat":46.2058,"long":6.1416}},{"zipCode":1211,"city":"Genève 19","lat":46.2058,"long":6.1416,"closestMainCity":{"zipCode":1200,"city":"Genève","lat":46.2058,"long":6.1416}},{"zipCode":1211,"city":"Genève 71 CS CP","lat":46.2058,"long":6.1416,"closestMainCity":{"zipCode":1200,"city":"Genève","lat":46.2058,"long":6.1416}},{"zipCode":1211,"city":"Genève 11","lat":46.2058,"long":6.1416,"closestMainCity":{"zipCode":1200,"city":"Genève","lat":46.2058,"long":6.1416}},{"zipCode":1211,"city":"Genève 4","lat":46.2058,"long":6.1416,"closestMainCity":{"zipCode":1200,"city":"Genève","lat":46.2058,"long":6.1416}},{"zipCode":1211,"city":"Genève 20","lat":46.2058,"long":6.1416,"closestMainCity":{"zipCode":1200,"city":"Genève","lat":46.2058,"long":6.1416}},{"zipCode":1211,"city":"Genève 13","lat":46.2058,"long":6.1416,"closestMainCity":{"zipCode":1200,"city":"Genève","lat":46.2058,"long":6.1416}},{"zipCode":1211,"city":"Genève 73","lat":46.2058,"long":6.1416,"closestMainCity":{"zipCode":1200,"city":"Genève","lat":46.2058,"long":6.1416}},{"zipCode":1211,"city":"Genève 6","lat":46.2058,"long":6.1416,"closestMainCity":{"zipCode":1200,"city":"Genève","lat":46.2058,"long":6.1416}},{"zipCode":1211,"city":"Genève 70","lat":46.2058,"long":6.1416,"closestMainCity":{"zipCode":1200,"city":"Genève","lat":46.2058,"long":6.1416}},{"zipCode":1211,"city":"Genève 5","lat":46.2358,"long":6.1192,"closestMainCity":{"zipCode":1200,"city":"Genève","lat":46.2058,"long":6.1416}},{"zipCode":1211,"city":"Genève 84 Votation","lat":46.2058,"long":6.1416,"closestMainCity":{"zipCode":1200,"city":"Genève","lat":46.2058,"long":6.1416}},{"zipCode":1211,"city":"Genève 23","lat":46.2322,"long":6.0791,"closestMainCity":{"zipCode":1200,"city":"Genève","lat":46.2058,"long":6.1416}},{"zipCode":1211,"city":"Genève 3","lat":46.2058,"long":6.1416,"closestMainCity":{"zipCode":1200,"city":"Genève","lat":46.2058,"long":6.1416}},{"zipCode":1211,"city":"Genève 26","lat":46.1897,"long":6.1158,"closestMainCity":{"zipCode":1200,"city":"Genève","lat":46.2058,"long":6.1416}},{"zipCode":1211,"city":"Genève 22","lat":46.2058,"long":6.1416,"closestMainCity":{"zipCode":1200,"city":"Genève","lat":46.2058,"long":6.1416}},{"zipCode":1211,"city":"Genève 27","lat":46.2379,"long":6.1424,"closestMainCity":{"zipCode":1200,"city":"Genève","lat":46.2058,"long":6.1416}},{"zipCode":1211,"city":"Genève 14","lat":46.2058,"long":6.1416,"closestMainCity":{"zipCode":1200,"city":"Genève","lat":46.2058,"long":6.1416}},{"zipCode":1211,"city":"Genève 1","lat":46.2058,"long":6.1416,"closestMainCity":{"zipCode":1200,"city":"Genève","lat":46.2058,"long":6.1416}},{"zipCode":1211,"city":"Genève 8","lat":46.2058,"long":6.1416,"closestMainCity":{"zipCode":1200,"city":"Genève","lat":46.2058,"long":6.1416}},{"zipCode":1211,"city":"Genève 2","lat":46.2058,"long":6.1416,"closestMainCity":{"zipCode":1200,"city":"Genève","lat":46.2058,"long":6.1416}},{"zipCode":1211,"city":"Genève 28","lat":46.2058,"long":6.1416,"closestMainCity":{"zipCode":1200,"city":"Genève","lat":46.2058,"long":6.1416}},{"zipCode":1211,"city":"Genève 12","lat":46.2058,"long":6.1416,"closestMainCity":{"zipCode":1200,"city":"Genève","lat":46.2058,"long":6.1416}},{"zipCode":1211,"city":"Genève 10","lat":46.2058,"long":6.1416,"closestMainCity":{"zipCode":1200,"city":"Genève","lat":46.2058,"long":6.1416}},{"zipCode":1212,"city":"Grand-Lancy","lat":46.1788,"long":6.1229,"closestMainCity":{"zipCode":1200,"city":"Genève","lat":46.2058,"long":6.1416}},{"zipCode":1213,"city":"Onex","lat":46.184,"long":6.1024,"closestMainCity":{"zipCode":1200,"city":"Genève","lat":46.2058,"long":6.1416}},{"zipCode":1213,"city":"Petit-Lancy","lat":46.1965,"long":6.1136,"closestMainCity":{"zipCode":1200,"city":"Genève","lat":46.2058,"long":6.1416}},{"zipCode":1214,"city":"Vernier","lat":46.217,"long":6.085,"closestMainCity":{"zipCode":1200,"city":"Genève","lat":46.2058,"long":6.1416}},{"zipCode":1215,"city":"Genève","lat":46.2358,"long":6.1192,"closestMainCity":{"zipCode":1200,"city":"Genève","lat":46.2058,"long":6.1416}},{"zipCode":1216,"city":"Cointrin","lat":46.2267,"long":6.1055,"closestMainCity":{"zipCode":1200,"city":"Genève","lat":46.2058,"long":6.1416}},{"zipCode":1217,"city":"Meyrin","lat":46.2342,"long":6.0802,"closestMainCity":{"zipCode":1200,"city":"Genève","lat":46.2058,"long":6.1416}},{"zipCode":1218,"city":"Le Grand-Saconnex","lat":46.2319,"long":6.1209,"closestMainCity":{"zipCode":1200,"city":"Genève","lat":46.2058,"long":6.1416}},{"zipCode":1219,"city":"Châtelaine","lat":46.2114,"long":6.1089,"closestMainCity":{"zipCode":1200,"city":"Genève","lat":46.2058,"long":6.1416}},{"zipCode":1219,"city":"Le Lignon","lat":46.2074,"long":6.0984,"closestMainCity":{"zipCode":1200,"city":"Genève","lat":46.2058,"long":6.1416}},{"zipCode":1219,"city":"Aïre","lat":46.1951,"long":6.0995,"closestMainCity":{"zipCode":1200,"city":"Genève","lat":46.2058,"long":6.1416}},{"zipCode":1220,"city":"Les Avanchets","lat":46.2217,"long":6.1081,"closestMainCity":{"zipCode":1200,"city":"Genève","lat":46.2058,"long":6.1416}},{"zipCode":1222,"city":"Vésenaz","lat":46.2403,"long":6.1975,"closestMainCity":{"zipCode":1200,"city":"Genève","lat":46.2058,"long":6.1416}},{"zipCode":1223,"city":"Cologny","lat":46.2167,"long":6.1804,"closestMainCity":{"zipCode":1200,"city":"Genève","lat":46.2058,"long":6.1416}},{"zipCode":1224,"city":"Chêne-Bougeries","lat":46.1984,"long":6.1864,"closestMainCity":{"zipCode":1200,"city":"Genève","lat":46.2058,"long":6.1416}},{"zipCode":1225,"city":"Chêne-Bourg","lat":46.1953,"long":6.1941,"closestMainCity":{"zipCode":1200,"city":"Genève","lat":46.2058,"long":6.1416}},{"zipCode":1226,"city":"Thônex","lat":46.1881,"long":6.199,"closestMainCity":{"zipCode":1200,"city":"Genève","lat":46.2058,"long":6.1416}},{"zipCode":1227,"city":"Carouge GE","lat":46.1917,"long":6.1361,"closestMainCity":{"zipCode":1200,"city":"Genève","lat":46.2058,"long":6.1416}},{"zipCode":1227,"city":"Les Acacias","lat":46.1917,"long":6.1361,"closestMainCity":{"zipCode":1200,"city":"Genève","lat":46.2058,"long":6.1416}},{"zipCode":1228,"city":"Plan-les-Ouates","lat":46.1679,"long":6.1166,"closestMainCity":{"zipCode":1200,"city":"Genève","lat":46.2058,"long":6.1416}},{"zipCode":1231,"city":"Conches","lat":46.185,"long":6.1739,"closestMainCity":{"zipCode":1200,"city":"Genève","lat":46.2058,"long":6.1416}},{"zipCode":1232,"city":"Confignon","lat":46.1734,"long":6.0844,"closestMainCity":{"zipCode":1200,"city":"Genève","lat":46.2058,"long":6.1416}},{"zipCode":1233,"city":"Bernex","lat":46.1765,"long":6.0754,"closestMainCity":{"zipCode":1200,"city":"Genève","lat":46.2058,"long":6.1416}},{"zipCode":1234,"city":"Vessy","lat":46.1831,"long":6.1668,"closestMainCity":{"zipCode":1200,"city":"Genève","lat":46.2058,"long":6.1416}},{"zipCode":1236,"city":"Cartigny","lat":46.1741,"long":6.0198,"closestMainCity":{"zipCode":1200,"city":"Genève","lat":46.2058,"long":6.1416}},{"zipCode":1237,"city":"Avully","lat":46.1701,"long":6.0046,"closestMainCity":{"zipCode":1200,"city":"Genève","lat":46.2058,"long":6.1416}},{"zipCode":1239,"city":"Collex","lat":46.2715,"long":6.1233,"closestMainCity":{"zipCode":1200,"city":"Genève","lat":46.2058,"long":6.1416}},{"zipCode":1240,"city":"Genève","lat":46.2058,"long":6.1416,"closestMainCity":{"zipCode":1200,"city":"Genève","lat":46.2058,"long":6.1416}},{"zipCode":1241,"city":"Puplinge","lat":46.2104,"long":6.2311,"closestMainCity":{"zipCode":1200,"city":"Genève","lat":46.2058,"long":6.1416}},{"zipCode":1242,"city":"Satigny","lat":46.2146,"long":6.0355,"closestMainCity":{"zipCode":1200,"city":"Genève","lat":46.2058,"long":6.1416}},{"zipCode":1243,"city":"Presinge","lat":46.2198,"long":6.2552,"closestMainCity":{"zipCode":1200,"city":"Genève","lat":46.2058,"long":6.1416}},{"zipCode":1244,"city":"Choulex","lat":46.2263,"long":6.2238,"closestMainCity":{"zipCode":1200,"city":"Genève","lat":46.2058,"long":6.1416}},{"zipCode":1245,"city":"Collonge-Bellerive","lat":46.2504,"long":6.1959,"closestMainCity":{"zipCode":1200,"city":"Genève","lat":46.2058,"long":6.1416}},{"zipCode":1246,"city":"Corsier GE","lat":46.263,"long":6.2246,"closestMainCity":{"zipCode":1200,"city":"Genève","lat":46.2058,"long":6.1416}},{"zipCode":1247,"city":"Anières","lat":46.2767,"long":6.222,"closestMainCity":{"zipCode":1200,"city":"Genève","lat":46.2058,"long":6.1416}},{"zipCode":1248,"city":"Hermance","lat":46.3014,"long":6.2433,"closestMainCity":{"zipCode":1200,"city":"Genève","lat":46.2058,"long":6.1416}},{"zipCode":1251,"city":"Gy","lat":46.2532,"long":6.2591,"closestMainCity":{"zipCode":1200,"city":"Genève","lat":46.2058,"long":6.1416}},{"zipCode":1252,"city":"Meinier","lat":46.2471,"long":6.2342,"closestMainCity":{"zipCode":1200,"city":"Genève","lat":46.2058,"long":6.1416}},{"zipCode":1253,"city":"Vandoeuvres","lat":46.2218,"long":6.2029,"closestMainCity":{"zipCode":1200,"city":"Genève","lat":46.2058,"long":6.1416}},{"zipCode":1254,"city":"Jussy","lat":46.2359,"long":6.267,"closestMainCity":{"zipCode":1200,"city":"Genève","lat":46.2058,"long":6.1416}},{"zipCode":1255,"city":"Veyrier","lat":46.167,"long":6.1844,"closestMainCity":{"zipCode":1200,"city":"Genève","lat":46.2058,"long":6.1416}},{"zipCode":1256,"city":"Troinex","lat":46.1631,"long":6.1475,"closestMainCity":{"zipCode":1200,"city":"Genève","lat":46.2058,"long":6.1416}},{"zipCode":1257,"city":"La Croix-de-Rozon","lat":46.1454,"long":6.1364,"closestMainCity":{"zipCode":1200,"city":"Genève","lat":46.2058,"long":6.1416}},{"zipCode":1258,"city":"Perly","lat":46.157,"long":6.0923,"closestMainCity":{"zipCode":1200,"city":"Genève","lat":46.2058,"long":6.1416}},{"zipCode":1260,"city":"Nyon","lat":46.3832,"long":6.2395,"closestMainCity":{"zipCode":1200,"city":"Genève","lat":46.2058,"long":6.1416}},{"zipCode":1261,"city":"Longirod","lat":46.495,"long":6.2584,"closestMainCity":{"zipCode":1110,"city":"Morges","lat":46.5113,"long":6.4985}},{"zipCode":1261,"city":"Marchissy","lat":46.4881,"long":6.2466,"closestMainCity":{"zipCode":1110,"city":"Morges","lat":46.5113,"long":6.4985}},{"zipCode":1261,"city":"Le Vaud","lat":46.4775,"long":6.236,"closestMainCity":{"zipCode":1110,"city":"Morges","lat":46.5113,"long":6.4985}},{"zipCode":1262,"city":"Eysins","lat":46.3817,"long":6.207,"closestMainCity":{"zipCode":1200,"city":"Genève","lat":46.2058,"long":6.1416}},{"zipCode":1263,"city":"Crassier","lat":46.3746,"long":6.1637,"closestMainCity":{"zipCode":1200,"city":"Genève","lat":46.2058,"long":6.1416}},{"zipCode":1264,"city":"St-Cergue","lat":46.4459,"long":6.1574,"closestMainCity":{"zipCode":1200,"city":"Genève","lat":46.2058,"long":6.1416}},{"zipCode":1265,"city":"La Cure","lat":46.4647,"long":6.0742,"closestMainCity":{"zipCode":1200,"city":"Genève","lat":46.2058,"long":6.1416}},{"zipCode":1266,"city":"Duillier","lat":46.4092,"long":6.2298,"closestMainCity":{"zipCode":1110,"city":"Morges","lat":46.5113,"long":6.4985}},{"zipCode":1267,"city":"Vich","lat":46.4292,"long":6.2501,"closestMainCity":{"zipCode":1110,"city":"Morges","lat":46.5113,"long":6.4985}},{"zipCode":1267,"city":"Coinsins","lat":46.4239,"long":6.2356,"closestMainCity":{"zipCode":1110,"city":"Morges","lat":46.5113,"long":6.4985}},{"zipCode":1268,"city":"Burtigny","lat":46.4675,"long":6.2571,"closestMainCity":{"zipCode":1110,"city":"Morges","lat":46.5113,"long":6.4985}},{"zipCode":1268,"city":"Begnins","lat":46.4415,"long":6.2476,"closestMainCity":{"zipCode":1110,"city":"Morges","lat":46.5113,"long":6.4985}},{"zipCode":1269,"city":"Bassins","lat":46.4627,"long":6.2362,"closestMainCity":{"zipCode":1110,"city":"Morges","lat":46.5113,"long":6.4985}},{"zipCode":1270,"city":"Trélex","lat":46.4154,"long":6.2081,"closestMainCity":{"zipCode":1200,"city":"Genève","lat":46.2058,"long":6.1416}},{"zipCode":1271,"city":"Givrins","lat":46.4297,"long":6.2021,"closestMainCity":{"zipCode":1110,"city":"Morges","lat":46.5113,"long":6.4985}},{"zipCode":1272,"city":"Genolier","lat":46.4354,"long":6.2181,"closestMainCity":{"zipCode":1110,"city":"Morges","lat":46.5113,"long":6.4985}},{"zipCode":1273,"city":"Arzier-Le Muids","lat":46.4596,"long":6.2081,"closestMainCity":{"zipCode":1110,"city":"Morges","lat":46.5113,"long":6.4985}},{"zipCode":1274,"city":"Signy","lat":46.3917,"long":6.2029,"closestMainCity":{"zipCode":1200,"city":"Genève","lat":46.2058,"long":6.1416}},{"zipCode":1274,"city":"Grens","lat":46.394,"long":6.1911,"closestMainCity":{"zipCode":1200,"city":"Genève","lat":46.2058,"long":6.1416}},{"zipCode":1275,"city":"Chéserex","lat":46.3993,"long":6.174,"closestMainCity":{"zipCode":1200,"city":"Genève","lat":46.2058,"long":6.1416}},{"zipCode":1276,"city":"Gingins","lat":46.4091,"long":6.1781,"closestMainCity":{"zipCode":1200,"city":"Genève","lat":46.2058,"long":6.1416}},{"zipCode":1277,"city":"Arnex-sur-Nyon","lat":46.3729,"long":6.1898,"closestMainCity":{"zipCode":1200,"city":"Genève","lat":46.2058,"long":6.1416}},{"zipCode":1277,"city":"Borex","lat":46.3789,"long":6.1762,"closestMainCity":{"zipCode":1200,"city":"Genève","lat":46.2058,"long":6.1416}},{"zipCode":1278,"city":"La Rippe","lat":46.381,"long":6.1505,"closestMainCity":{"zipCode":1200,"city":"Genève","lat":46.2058,"long":6.1416}},{"zipCode":1279,"city":"Bogis-Bossey","lat":46.3537,"long":6.166,"closestMainCity":{"zipCode":1200,"city":"Genève","lat":46.2058,"long":6.1416}},{"zipCode":1279,"city":"Chavannes-de-Bogis","lat":46.3454,"long":6.162,"closestMainCity":{"zipCode":1200,"city":"Genève","lat":46.2058,"long":6.1416}},{"zipCode":1281,"city":"Russin","lat":46.187,"long":6.0138,"closestMainCity":{"zipCode":1200,"city":"Genève","lat":46.2058,"long":6.1416}},{"zipCode":1283,"city":"Dardagny","lat":46.1956,"long":5.995,"closestMainCity":{"zipCode":1200,"city":"Genève","lat":46.2058,"long":6.1416}},{"zipCode":1283,"city":"La Plaine","lat":46.1773,"long":6.0011,"closestMainCity":{"zipCode":1200,"city":"Genève","lat":46.2058,"long":6.1416}},{"zipCode":1284,"city":"Chancy","lat":46.15,"long":5.9715,"closestMainCity":{"zipCode":1200,"city":"Genève","lat":46.2058,"long":6.1416}},{"zipCode":1285,"city":"Athenaz (Avusy)","lat":46.1518,"long":6.0021,"closestMainCity":{"zipCode":1200,"city":"Genève","lat":46.2058,"long":6.1416}},{"zipCode":1286,"city":"Soral","lat":46.1437,"long":6.0428,"closestMainCity":{"zipCode":1200,"city":"Genève","lat":46.2058,"long":6.1416}},{"zipCode":1287,"city":"Laconnex","lat":46.157,"long":6.0313,"closestMainCity":{"zipCode":1200,"city":"Genève","lat":46.2058,"long":6.1416}},{"zipCode":1288,"city":"Aire-la-Ville","lat":46.1906,"long":6.0429,"closestMainCity":{"zipCode":1200,"city":"Genève","lat":46.2058,"long":6.1416}},{"zipCode":1290,"city":"Versoix","lat":46.2838,"long":6.1621,"closestMainCity":{"zipCode":1200,"city":"Genève","lat":46.2058,"long":6.1416}},{"zipCode":1290,"city":"Chavannes-des-Bois","lat":46.314,"long":6.135,"closestMainCity":{"zipCode":1200,"city":"Genève","lat":46.2058,"long":6.1416}},{"zipCode":1291,"city":"Commugny","lat":46.321,"long":6.1712,"closestMainCity":{"zipCode":1200,"city":"Genève","lat":46.2058,"long":6.1416}},{"zipCode":1292,"city":"Chambésy","lat":46.2441,"long":6.1444,"closestMainCity":{"zipCode":1200,"city":"Genève","lat":46.2058,"long":6.1416}},{"zipCode":1293,"city":"Bellevue","lat":46.2574,"long":6.1547,"closestMainCity":{"zipCode":1200,"city":"Genève","lat":46.2058,"long":6.1416}},{"zipCode":1294,"city":"Genthod","lat":46.2672,"long":6.1556,"closestMainCity":{"zipCode":1200,"city":"Genève","lat":46.2058,"long":6.1416}},{"zipCode":1295,"city":"Mies","lat":46.3035,"long":6.1633,"closestMainCity":{"zipCode":1200,"city":"Genève","lat":46.2058,"long":6.1416}},{"zipCode":1295,"city":"Tannay","lat":46.3088,"long":6.1773,"closestMainCity":{"zipCode":1200,"city":"Genève","lat":46.2058,"long":6.1416}},{"zipCode":1296,"city":"Coppet","lat":46.3168,"long":6.1911,"closestMainCity":{"zipCode":1200,"city":"Genève","lat":46.2058,"long":6.1416}},{"zipCode":1297,"city":"Founex","lat":46.3328,"long":6.1924,"closestMainCity":{"zipCode":1200,"city":"Genève","lat":46.2058,"long":6.1416}},{"zipCode":1298,"city":"Céligny","lat":46.3507,"long":6.195,"closestMainCity":{"zipCode":1200,"city":"Genève","lat":46.2058,"long":6.1416}},{"zipCode":1298,"city":"Céligny","lat":46.3507,"long":6.195,"closestMainCity":{"zipCode":1200,"city":"Genève","lat":46.2058,"long":6.1416}},{"zipCode":1299,"city":"Crans-près-Céligny","lat":46.3591,"long":6.2058,"closestMainCity":{"zipCode":1200,"city":"Genève","lat":46.2058,"long":6.1416}},{"zipCode":1302,"city":"Vufflens-la-Ville","lat":46.5752,"long":6.5372,"closestMainCity":{"zipCode":1110,"city":"Morges","lat":46.5113,"long":6.4985}},{"zipCode":1303,"city":"Penthaz","lat":46.5987,"long":6.5413,"closestMainCity":{"zipCode":1110,"city":"Morges","lat":46.5113,"long":6.4985}},{"zipCode":1304,"city":"Cossonay-Ville","lat":46.6144,"long":6.5063,"closestMainCity":{"zipCode":1110,"city":"Morges","lat":46.5113,"long":6.4985}},{"zipCode":1304,"city":"Senarclens","lat":46.5979,"long":6.4854,"closestMainCity":{"zipCode":1110,"city":"Morges","lat":46.5113,"long":6.4985}},{"zipCode":1304,"city":"Allens","lat":46.6009,"long":6.5109,"closestMainCity":{"zipCode":1110,"city":"Morges","lat":46.5113,"long":6.4985}},{"zipCode":1304,"city":"Dizy","lat":46.6354,"long":6.4965,"closestMainCity":{"zipCode":1110,"city":"Morges","lat":46.5113,"long":6.4985}},{"zipCode":1305,"city":"Penthalaz","lat":46.6108,"long":6.5252,"closestMainCity":{"zipCode":1110,"city":"Morges","lat":46.5113,"long":6.4985}},{"zipCode":1306,"city":"Daillens","lat":46.6211,"long":6.5487,"closestMainCity":{"zipCode":1001,"city":"Lausanne","lat":46.5218,"long":6.633}},{"zipCode":1307,"city":"Lussery-Villars","lat":46.6328,"long":6.5256,"closestMainCity":{"zipCode":1110,"city":"Morges","lat":46.5113,"long":6.4985}},{"zipCode":1308,"city":"La Chaux (Cossonay)","lat":46.6171,"long":6.4722,"closestMainCity":{"zipCode":1110,"city":"Morges","lat":46.5113,"long":6.4985}},{"zipCode":1312,"city":"Eclépens","lat":46.6482,"long":6.5358,"closestMainCity":{"zipCode":1110,"city":"Morges","lat":46.5113,"long":6.4985}},{"zipCode":1313,"city":"Ferreyres","lat":46.658,"long":6.4852,"closestMainCity":{"zipCode":1110,"city":"Morges","lat":46.5113,"long":6.4985}},{"zipCode":1315,"city":"La Sarraz","lat":46.6586,"long":6.5108,"closestMainCity":{"zipCode":1110,"city":"Morges","lat":46.5113,"long":6.4985}},{"zipCode":1316,"city":"Chevilly","lat":46.6427,"long":6.4766,"closestMainCity":{"zipCode":1110,"city":"Morges","lat":46.5113,"long":6.4985}},{"zipCode":1317,"city":"Orny","lat":46.6676,"long":6.5264,"closestMainCity":{"zipCode":1400,"city":"Yverdon-les-Bains","lat":46.7785,"long":6.6411}},{"zipCode":1318,"city":"Pompaples","lat":46.667,"long":6.5097,"closestMainCity":{"zipCode":1400,"city":"Yverdon-les-Bains","lat":46.7785,"long":6.6411}},{"zipCode":1321,"city":"Arnex-sur-Orbe","lat":46.69,"long":6.5169,"closestMainCity":{"zipCode":1400,"city":"Yverdon-les-Bains","lat":46.7785,"long":6.6411}},{"zipCode":1322,"city":"Croy","lat":46.6938,"long":6.4757,"closestMainCity":{"zipCode":1400,"city":"Yverdon-les-Bains","lat":46.7785,"long":6.6411}},{"zipCode":1323,"city":"Romainmôtier","lat":46.6939,"long":6.4609,"closestMainCity":{"zipCode":1400,"city":"Yverdon-les-Bains","lat":46.7785,"long":6.6411}},{"zipCode":1324,"city":"Premier","lat":46.7057,"long":6.4499,"closestMainCity":{"zipCode":1400,"city":"Yverdon-les-Bains","lat":46.7785,"long":6.6411}},{"zipCode":1325,"city":"Vaulion","lat":46.6891,"long":6.3894,"closestMainCity":{"zipCode":1110,"city":"Morges","lat":46.5113,"long":6.4985}},{"zipCode":1326,"city":"Juriens","lat":46.6885,"long":6.4457,"closestMainCity":{"zipCode":1400,"city":"Yverdon-les-Bains","lat":46.7785,"long":6.6411}},{"zipCode":1329,"city":"Bretonnières","lat":46.7124,"long":6.4696,"closestMainCity":{"zipCode":1400,"city":"Yverdon-les-Bains","lat":46.7785,"long":6.6411}},{"zipCode":1337,"city":"Vallorbe","lat":46.7126,"long":6.3789,"closestMainCity":{"zipCode":1400,"city":"Yverdon-les-Bains","lat":46.7785,"long":6.6411}},{"zipCode":1338,"city":"Ballaigues","lat":46.7298,"long":6.4136,"closestMainCity":{"zipCode":1400,"city":"Yverdon-les-Bains","lat":46.7785,"long":6.6411}},{"zipCode":1341,"city":"Orient","lat":46.6015,"long":6.2394,"closestMainCity":{"zipCode":1110,"city":"Morges","lat":46.5113,"long":6.4985}},{"zipCode":1342,"city":"Le Pont","lat":46.6658,"long":6.3309,"closestMainCity":{"zipCode":1110,"city":"Morges","lat":46.5113,"long":6.4985}},{"zipCode":1343,"city":"Les Charbonnières","lat":46.6667,"long":6.3156,"closestMainCity":{"zipCode":1110,"city":"Morges","lat":46.5113,"long":6.4985}},{"zipCode":1344,"city":"L'Abbaye","lat":46.6497,"long":6.3191,"closestMainCity":{"zipCode":1110,"city":"Morges","lat":46.5113,"long":6.4985}},{"zipCode":1345,"city":"Le Séchey","lat":46.6614,"long":6.3009,"closestMainCity":{"zipCode":1110,"city":"Morges","lat":46.5113,"long":6.4985}},{"zipCode":1345,"city":"Le Lieu","lat":46.6478,"long":6.2828,"closestMainCity":{"zipCode":1110,"city":"Morges","lat":46.5113,"long":6.4985}},{"zipCode":1346,"city":"Les Bioux","lat":46.6207,"long":6.2699,"closestMainCity":{"zipCode":1110,"city":"Morges","lat":46.5113,"long":6.4985}},{"zipCode":1347,"city":"Le Solliat","lat":46.6211,"long":6.2355,"closestMainCity":{"zipCode":1110,"city":"Morges","lat":46.5113,"long":6.4985}},{"zipCode":1347,"city":"Le Sentier","lat":46.608,"long":6.2324,"closestMainCity":{"zipCode":1110,"city":"Morges","lat":46.5113,"long":6.4985}},{"zipCode":1348,"city":"Le Brassus","lat":46.5841,"long":6.2123,"closestMainCity":{"zipCode":1110,"city":"Morges","lat":46.5113,"long":6.4985}},{"zipCode":1350,"city":"Orbe","lat":46.725,"long":6.5307,"closestMainCity":{"zipCode":1400,"city":"Yverdon-les-Bains","lat":46.7785,"long":6.6411}},{"zipCode":1352,"city":"Agiez","lat":46.721,"long":6.5075,"closestMainCity":{"zipCode":1400,"city":"Yverdon-les-Bains","lat":46.7785,"long":6.6411}},{"zipCode":1353,"city":"Bofflens","lat":46.7031,"long":6.4948,"closestMainCity":{"zipCode":1400,"city":"Yverdon-les-Bains","lat":46.7785,"long":6.6411}},{"zipCode":1354,"city":"Montcherand","lat":46.7336,"long":6.5082,"closestMainCity":{"zipCode":1400,"city":"Yverdon-les-Bains","lat":46.7785,"long":6.6411}},{"zipCode":1355,"city":"L'Abergement","lat":46.7542,"long":6.485,"closestMainCity":{"zipCode":1400,"city":"Yverdon-les-Bains","lat":46.7785,"long":6.6411}},{"zipCode":1355,"city":"Sergey","lat":46.7493,"long":6.5013,"closestMainCity":{"zipCode":1400,"city":"Yverdon-les-Bains","lat":46.7785,"long":6.6411}},{"zipCode":1356,"city":"Les Clées","lat":46.7379,"long":6.4808,"closestMainCity":{"zipCode":1400,"city":"Yverdon-les-Bains","lat":46.7785,"long":6.6411}},{"zipCode":1356,"city":"La Russille","lat":46.7379,"long":6.4808,"closestMainCity":{"zipCode":1400,"city":"Yverdon-les-Bains","lat":46.7785,"long":6.6411}},{"zipCode":1357,"city":"Lignerolle","lat":46.7408,"long":6.4587,"closestMainCity":{"zipCode":1400,"city":"Yverdon-les-Bains","lat":46.7785,"long":6.6411}},{"zipCode":1358,"city":"Valeyres-sous-Rances","lat":46.753,"long":6.5262,"closestMainCity":{"zipCode":1400,"city":"Yverdon-les-Bains","lat":46.7785,"long":6.6411}},{"zipCode":1372,"city":"Bavois","lat":46.684,"long":6.5671,"closestMainCity":{"zipCode":1400,"city":"Yverdon-les-Bains","lat":46.7785,"long":6.6411}},{"zipCode":1373,"city":"Chavornay","lat":46.7024,"long":6.5694,"closestMainCity":{"zipCode":1400,"city":"Yverdon-les-Bains","lat":46.7785,"long":6.6411}},{"zipCode":1374,"city":"Corcelles-sur-Chavornay","lat":46.7065,"long":6.569,"closestMainCity":{"zipCode":1400,"city":"Yverdon-les-Bains","lat":46.7785,"long":6.6411}},{"zipCode":1375,"city":"Penthéréaz","lat":46.6817,"long":6.6039,"closestMainCity":{"zipCode":1400,"city":"Yverdon-les-Bains","lat":46.7785,"long":6.6411}},{"zipCode":1376,"city":"Eclagnens","lat":46.6513,"long":6.5919,"closestMainCity":{"zipCode":1400,"city":"Yverdon-les-Bains","lat":46.7785,"long":6.6411}},{"zipCode":1376,"city":"Goumoens-la-Ville","lat":46.6592,"long":6.604,"closestMainCity":{"zipCode":1400,"city":"Yverdon-les-Bains","lat":46.7785,"long":6.6411}},{"zipCode":1376,"city":"Goumoens-le-Jux","lat":46.6552,"long":6.5979,"closestMainCity":{"zipCode":1400,"city":"Yverdon-les-Bains","lat":46.7785,"long":6.6411}},{"zipCode":1377,"city":"Oulens-sous-Echallens","lat":46.6438,"long":6.577,"closestMainCity":{"zipCode":1001,"city":"Lausanne","lat":46.5218,"long":6.633}},{"zipCode":1400,"city":"Yverdon-les-Bains","lat":46.7785,"long":6.6411,"closestMainCity":{"zipCode":1400,"city":"Yverdon-les-Bains","lat":46.7785,"long":6.6411}},{"zipCode":1401,"city":"Yverdon-les-Bains","lat":46.7743,"long":6.6371,"closestMainCity":{"zipCode":1400,"city":"Yverdon-les-Bains","lat":46.7785,"long":6.6411}},{"zipCode":1404,"city":"Cuarny","lat":46.7699,"long":6.6921,"closestMainCity":{"zipCode":1400,"city":"Yverdon-les-Bains","lat":46.7785,"long":6.6411}},{"zipCode":1404,"city":"Villars-Epeney","lat":46.7826,"long":6.6976,"closestMainCity":{"zipCode":1400,"city":"Yverdon-les-Bains","lat":46.7785,"long":6.6411}},{"zipCode":1405,"city":"Pomy","lat":46.7586,"long":6.6691,"closestMainCity":{"zipCode":1400,"city":"Yverdon-les-Bains","lat":46.7785,"long":6.6411}},{"zipCode":1406,"city":"Cronay","lat":46.7566,"long":6.6977,"closestMainCity":{"zipCode":1400,"city":"Yverdon-les-Bains","lat":46.7785,"long":6.6411}},{"zipCode":1407,"city":"Donneloye","lat":46.7455,"long":6.7164,"closestMainCity":{"zipCode":1400,"city":"Yverdon-les-Bains","lat":46.7785,"long":6.6411}},{"zipCode":1407,"city":"Gossens","lat":46.7393,"long":6.7003,"closestMainCity":{"zipCode":1400,"city":"Yverdon-les-Bains","lat":46.7785,"long":6.6411}},{"zipCode":1407,"city":"Mézery-près-Donneloye","lat":46.7369,"long":6.7092,"closestMainCity":{"zipCode":1400,"city":"Yverdon-les-Bains","lat":46.7785,"long":6.6411}},{"zipCode":1407,"city":"Bioley-Magnoux","lat":46.7259,"long":6.7108,"closestMainCity":{"zipCode":1400,"city":"Yverdon-les-Bains","lat":46.7785,"long":6.6411}},{"zipCode":1408,"city":"Prahins","lat":46.7348,"long":6.7386,"closestMainCity":{"zipCode":1400,"city":"Yverdon-les-Bains","lat":46.7785,"long":6.6411}},{"zipCode":1409,"city":"Chanéaz","lat":46.7288,"long":6.7448,"closestMainCity":{"zipCode":1400,"city":"Yverdon-les-Bains","lat":46.7785,"long":6.6411}},{"zipCode":1410,"city":"Prévondavaux","lat":46.7296,"long":6.7956,"closestMainCity":{"zipCode":1400,"city":"Yverdon-les-Bains","lat":46.7785,"long":6.6411}},{"zipCode":1410,"city":"Thierrens","lat":46.7038,"long":6.755,"closestMainCity":{"zipCode":1400,"city":"Yverdon-les-Bains","lat":46.7785,"long":6.6411}},{"zipCode":1410,"city":"Denezy","lat":46.7215,"long":6.7818,"closestMainCity":{"zipCode":1400,"city":"Yverdon-les-Bains","lat":46.7785,"long":6.6411}},{"zipCode":1410,"city":"St-Cierges","lat":46.6894,"long":6.7354,"closestMainCity":{"zipCode":1400,"city":"Yverdon-les-Bains","lat":46.7785,"long":6.6411}},{"zipCode":1410,"city":"Correvon","lat":46.7171,"long":6.7396,"closestMainCity":{"zipCode":1400,"city":"Yverdon-les-Bains","lat":46.7785,"long":6.6411}},{"zipCode":1412,"city":"Valeyres-sous-Ursins","lat":46.7471,"long":6.6523,"closestMainCity":{"zipCode":1400,"city":"Yverdon-les-Bains","lat":46.7785,"long":6.6411}},{"zipCode":1412,"city":"Ursins","lat":46.7373,"long":6.6682,"closestMainCity":{"zipCode":1400,"city":"Yverdon-les-Bains","lat":46.7785,"long":6.6411}},{"zipCode":1413,"city":"Orzens","lat":46.7263,"long":6.683,"closestMainCity":{"zipCode":1400,"city":"Yverdon-les-Bains","lat":46.7785,"long":6.6411}},{"zipCode":1415,"city":"Démoret","lat":46.7469,"long":6.7609,"closestMainCity":{"zipCode":1400,"city":"Yverdon-les-Bains","lat":46.7785,"long":6.6411}},{"zipCode":1415,"city":"Molondin","lat":46.7591,"long":6.7446,"closestMainCity":{"zipCode":1400,"city":"Yverdon-les-Bains","lat":46.7785,"long":6.6411}},{"zipCode":1416,"city":"Pailly","lat":46.7012,"long":6.6754,"closestMainCity":{"zipCode":1400,"city":"Yverdon-les-Bains","lat":46.7785,"long":6.6411}},{"zipCode":1417,"city":"Epautheyres","lat":46.7394,"long":6.6426,"closestMainCity":{"zipCode":1400,"city":"Yverdon-les-Bains","lat":46.7785,"long":6.6411}},{"zipCode":1417,"city":"Essertines-sur-Yverdon","lat":46.7183,"long":6.6384,"closestMainCity":{"zipCode":1400,"city":"Yverdon-les-Bains","lat":46.7785,"long":6.6411}},{"zipCode":1418,"city":"Vuarrens","lat":46.6858,"long":6.6479,"closestMainCity":{"zipCode":1400,"city":"Yverdon-les-Bains","lat":46.7785,"long":6.6411}},{"zipCode":1420,"city":"Fiez","lat":46.8282,"long":6.6239,"closestMainCity":{"zipCode":1400,"city":"Yverdon-les-Bains","lat":46.7785,"long":6.6411}},{"zipCode":1421,"city":"Grandevent","lat":46.8389,"long":6.6066,"closestMainCity":{"zipCode":1400,"city":"Yverdon-les-Bains","lat":46.7785,"long":6.6411}},{"zipCode":1421,"city":"Fontaines-sur-Grandson","lat":46.8282,"long":6.6239,"closestMainCity":{"zipCode":1400,"city":"Yverdon-les-Bains","lat":46.7785,"long":6.6411}},{"zipCode":1422,"city":"Grandson","lat":46.8095,"long":6.646,"closestMainCity":{"zipCode":1400,"city":"Yverdon-les-Bains","lat":46.7785,"long":6.6411}},{"zipCode":1423,"city":"Romairon","lat":46.8502,"long":6.6425,"closestMainCity":{"zipCode":1400,"city":"Yverdon-les-Bains","lat":46.7785,"long":6.6411}},{"zipCode":1423,"city":"Villars-Burquin","lat":46.8488,"long":6.6276,"closestMainCity":{"zipCode":1400,"city":"Yverdon-les-Bains","lat":46.7785,"long":6.6411}},{"zipCode":1423,"city":"Fontanezier","lat":46.8547,"long":6.6559,"closestMainCity":{"zipCode":1400,"city":"Yverdon-les-Bains","lat":46.7785,"long":6.6411}},{"zipCode":1423,"city":"Vaugondry","lat":46.8461,"long":6.6364,"closestMainCity":{"zipCode":1400,"city":"Yverdon-les-Bains","lat":46.7785,"long":6.6411}},{"zipCode":1424,"city":"Champagne","lat":46.8321,"long":6.6598,"closestMainCity":{"zipCode":1400,"city":"Yverdon-les-Bains","lat":46.7785,"long":6.6411}},{"zipCode":1425,"city":"Onnens VD","lat":46.8389,"long":6.689,"closestMainCity":{"zipCode":1400,"city":"Yverdon-les-Bains","lat":46.7785,"long":6.6411}},{"zipCode":1426,"city":"Concise","lat":46.8503,"long":6.7197,"closestMainCity":{"zipCode":1400,"city":"Yverdon-les-Bains","lat":46.7785,"long":6.6411}},{"zipCode":1426,"city":"Corcelles-près-Concise","lat":46.8518,"long":6.7027,"closestMainCity":{"zipCode":1400,"city":"Yverdon-les-Bains","lat":46.7785,"long":6.6411}},{"zipCode":1427,"city":"Bonvillars","lat":46.8398,"long":6.6713,"closestMainCity":{"zipCode":1400,"city":"Yverdon-les-Bains","lat":46.7785,"long":6.6411}},{"zipCode":1428,"city":"Mutrux","lat":46.8808,"long":6.7266,"closestMainCity":{"zipCode":1400,"city":"Yverdon-les-Bains","lat":46.7785,"long":6.6411}},{"zipCode":1428,"city":"Provence","lat":46.8905,"long":6.7261,"closestMainCity":{"zipCode":1400,"city":"Yverdon-les-Bains","lat":46.7785,"long":6.6411}},{"zipCode":1429,"city":"Giez","lat":46.816,"long":6.6171,"closestMainCity":{"zipCode":1400,"city":"Yverdon-les-Bains","lat":46.7785,"long":6.6411}},{"zipCode":1430,"city":"Orges","lat":46.8093,"long":6.5835,"closestMainCity":{"zipCode":1400,"city":"Yverdon-les-Bains","lat":46.7785,"long":6.6411}},{"zipCode":1431,"city":"Vugelles-La Mothe","lat":46.825,"long":6.5738,"closestMainCity":{"zipCode":1400,"city":"Yverdon-les-Bains","lat":46.7785,"long":6.6411}},{"zipCode":1431,"city":"Novalles","lat":46.8284,"long":6.5951,"closestMainCity":{"zipCode":1400,"city":"Yverdon-les-Bains","lat":46.7785,"long":6.6411}},{"zipCode":1432,"city":"Belmont-sur-Yverdon","lat":46.7418,"long":6.6247,"closestMainCity":{"zipCode":1400,"city":"Yverdon-les-Bains","lat":46.7785,"long":6.6411}},{"zipCode":1432,"city":"Gressy","lat":46.7502,"long":6.6364,"closestMainCity":{"zipCode":1400,"city":"Yverdon-les-Bains","lat":46.7785,"long":6.6411}},{"zipCode":1433,"city":"Suchy","lat":46.7235,"long":6.5993,"closestMainCity":{"zipCode":1400,"city":"Yverdon-les-Bains","lat":46.7785,"long":6.6411}},{"zipCode":1434,"city":"Ependes VD","lat":46.7428,"long":6.6081,"closestMainCity":{"zipCode":1400,"city":"Yverdon-les-Bains","lat":46.7785,"long":6.6411}},{"zipCode":1435,"city":"Essert-Pittet","lat":46.7065,"long":6.569,"closestMainCity":{"zipCode":1400,"city":"Yverdon-les-Bains","lat":46.7785,"long":6.6411}},{"zipCode":1436,"city":"Chamblon","lat":46.7791,"long":6.6026,"closestMainCity":{"zipCode":1400,"city":"Yverdon-les-Bains","lat":46.7785,"long":6.6411}},{"zipCode":1436,"city":"Treycovagnes","lat":46.7739,"long":6.6124,"closestMainCity":{"zipCode":1400,"city":"Yverdon-les-Bains","lat":46.7785,"long":6.6411}},{"zipCode":1437,"city":"Suscévaz","lat":46.7622,"long":6.5868,"closestMainCity":{"zipCode":1400,"city":"Yverdon-les-Bains","lat":46.7785,"long":6.6411}},{"zipCode":1438,"city":"Mathod","lat":46.7664,"long":6.5647,"closestMainCity":{"zipCode":1400,"city":"Yverdon-les-Bains","lat":46.7785,"long":6.6411}},{"zipCode":1439,"city":"Rances","lat":46.7607,"long":6.5297,"closestMainCity":{"zipCode":1400,"city":"Yverdon-les-Bains","lat":46.7785,"long":6.6411}},{"zipCode":1440,"city":"Montagny-Chamard","lat":46.7904,"long":6.6098,"closestMainCity":{"zipCode":1400,"city":"Yverdon-les-Bains","lat":46.7785,"long":6.6411}},{"zipCode":1441,"city":"Valeyres-sous-Montagny","lat":46.8005,"long":6.6037,"closestMainCity":{"zipCode":1400,"city":"Yverdon-les-Bains","lat":46.7785,"long":6.6411}},{"zipCode":1442,"city":"Montagny-près-Yverdon","lat":46.7929,"long":6.6122,"closestMainCity":{"zipCode":1400,"city":"Yverdon-les-Bains","lat":46.7785,"long":6.6411}},{"zipCode":1443,"city":"Champvent","lat":46.7829,"long":6.5719,"closestMainCity":{"zipCode":1400,"city":"Yverdon-les-Bains","lat":46.7785,"long":6.6411}},{"zipCode":1443,"city":"Essert-sous-Champvent","lat":46.7829,"long":6.5719,"closestMainCity":{"zipCode":1400,"city":"Yverdon-les-Bains","lat":46.7785,"long":6.6411}},{"zipCode":1443,"city":"Villars-sous-Champvent","lat":46.7829,"long":6.5719,"closestMainCity":{"zipCode":1400,"city":"Yverdon-les-Bains","lat":46.7785,"long":6.6411}},{"zipCode":1445,"city":"Vuiteboeuf","lat":46.8092,"long":6.5504,"closestMainCity":{"zipCode":1400,"city":"Yverdon-les-Bains","lat":46.7785,"long":6.6411}},{"zipCode":1446,"city":"Baulmes","lat":46.7903,"long":6.5228,"closestMainCity":{"zipCode":1400,"city":"Yverdon-les-Bains","lat":46.7785,"long":6.6411}},{"zipCode":1450,"city":"La Sagne (Ste-Croix)","lat":46.8165,"long":6.4982,"closestMainCity":{"zipCode":1400,"city":"Yverdon-les-Bains","lat":46.7785,"long":6.6411}},{"zipCode":1450,"city":"Le Château-de-Ste-Croix","lat":46.8182,"long":6.5341,"closestMainCity":{"zipCode":1400,"city":"Yverdon-les-Bains","lat":46.7785,"long":6.6411}},{"zipCode":1450,"city":"Ste-Croix","lat":46.8174,"long":6.5161,"closestMainCity":{"zipCode":1400,"city":"Yverdon-les-Bains","lat":46.7785,"long":6.6411}},{"zipCode":1452,"city":"Les Rasses","lat":46.829,"long":6.5391,"closestMainCity":{"zipCode":1400,"city":"Yverdon-les-Bains","lat":46.7785,"long":6.6411}},{"zipCode":1453,"city":"Bullet","lat":46.8312,"long":6.554,"closestMainCity":{"zipCode":1400,"city":"Yverdon-les-Bains","lat":46.7785,"long":6.6411}},{"zipCode":1453,"city":"Mauborget","lat":46.8561,"long":6.6156,"closestMainCity":{"zipCode":1400,"city":"Yverdon-les-Bains","lat":46.7785,"long":6.6411}},{"zipCode":1454,"city":"L'Auberson","lat":46.8192,"long":6.4597,"closestMainCity":{"zipCode":1400,"city":"Yverdon-les-Bains","lat":46.7785,"long":6.6411}},{"zipCode":1454,"city":"La Vraconnaz","lat":46.8426,"long":6.4837,"closestMainCity":{"zipCode":1400,"city":"Yverdon-les-Bains","lat":46.7785,"long":6.6411}},{"zipCode":1462,"city":"Yvonand","lat":46.8003,"long":6.7425,"closestMainCity":{"zipCode":1400,"city":"Yverdon-les-Bains","lat":46.7785,"long":6.6411}},{"zipCode":1463,"city":"Rovray","lat":46.7849,"long":6.7644,"closestMainCity":{"zipCode":1400,"city":"Yverdon-les-Bains","lat":46.7785,"long":6.6411}},{"zipCode":1464,"city":"Chavannes-le-Chêne","lat":46.777,"long":6.7779,"closestMainCity":{"zipCode":1400,"city":"Yverdon-les-Bains","lat":46.7785,"long":6.6411}},{"zipCode":1464,"city":"Chêne-Pâquier","lat":46.7715,"long":6.7694,"closestMainCity":{"zipCode":1400,"city":"Yverdon-les-Bains","lat":46.7785,"long":6.6411}},{"zipCode":1468,"city":"Cheyres","lat":46.8144,"long":6.7868,"closestMainCity":{"zipCode":1400,"city":"Yverdon-les-Bains","lat":46.7785,"long":6.6411}},{"zipCode":1470,"city":"Seiry","lat":46.8141,"long":6.8313,"closestMainCity":{"zipCode":1400,"city":"Yverdon-les-Bains","lat":46.7785,"long":6.6411}},{"zipCode":1470,"city":"Lully FR","lat":46.834,"long":6.8453,"closestMainCity":{"zipCode":1400,"city":"Yverdon-les-Bains","lat":46.7785,"long":6.6411}},{"zipCode":1470,"city":"Bollion","lat":46.8192,"long":6.828,"closestMainCity":{"zipCode":1400,"city":"Yverdon-les-Bains","lat":46.7785,"long":6.6411}},{"zipCode":1470,"city":"Estavayer-le-Lac","lat":46.8488,"long":6.8465,"closestMainCity":{"zipCode":2000,"city":"Neuchâtel","lat":46.9918,"long":6.931}},{"zipCode":1473,"city":"Châtillon FR","lat":46.8305,"long":6.8315,"closestMainCity":{"zipCode":1400,"city":"Yverdon-les-Bains","lat":46.7785,"long":6.6411}},{"zipCode":1473,"city":"Font","lat":46.8375,"long":6.8221,"closestMainCity":{"zipCode":1400,"city":"Yverdon-les-Bains","lat":46.7785,"long":6.6411}},{"zipCode":1474,"city":"Châbles FR","lat":46.8245,"long":6.8108,"closestMainCity":{"zipCode":1400,"city":"Yverdon-les-Bains","lat":46.7785,"long":6.6411}},{"zipCode":1475,"city":"Forel FR","lat":46.8774,"long":6.8891,"closestMainCity":{"zipCode":2000,"city":"Neuchâtel","lat":46.9918,"long":6.931}},{"zipCode":1475,"city":"Montbrelloz","lat":46.8548,"long":6.8876,"closestMainCity":{"zipCode":2000,"city":"Neuchâtel","lat":46.9918,"long":6.931}},{"zipCode":1475,"city":"Autavaux","lat":46.8666,"long":6.8782,"closestMainCity":{"zipCode":2000,"city":"Neuchâtel","lat":46.9918,"long":6.931}},{"zipCode":1482,"city":"Cugy FR","lat":46.8148,"long":6.8889,"closestMainCity":{"zipCode":1400,"city":"Yverdon-les-Bains","lat":46.7785,"long":6.6411}},{"zipCode":1483,"city":"Vesin","lat":46.8105,"long":6.8752,"closestMainCity":{"zipCode":1400,"city":"Yverdon-les-Bains","lat":46.7785,"long":6.6411}},{"zipCode":1483,"city":"Frasses","lat":46.8282,"long":6.8644,"closestMainCity":{"zipCode":1400,"city":"Yverdon-les-Bains","lat":46.7785,"long":6.6411}},{"zipCode":1483,"city":"Montet (Broye)","lat":46.8177,"long":6.8679,"closestMainCity":{"zipCode":1400,"city":"Yverdon-les-Bains","lat":46.7785,"long":6.6411}},{"zipCode":1484,"city":"Granges-de-Vesin","lat":46.7989,"long":6.8503,"closestMainCity":{"zipCode":1400,"city":"Yverdon-les-Bains","lat":46.7785,"long":6.6411}},{"zipCode":1484,"city":"Aumont","lat":46.7989,"long":6.8503,"closestMainCity":{"zipCode":1400,"city":"Yverdon-les-Bains","lat":46.7785,"long":6.6411}},{"zipCode":1485,"city":"Nuvilly","lat":46.7834,"long":6.8278,"closestMainCity":{"zipCode":1400,"city":"Yverdon-les-Bains","lat":46.7785,"long":6.6411}},{"zipCode":1486,"city":"Vuissens","lat":46.7334,"long":6.7662,"closestMainCity":{"zipCode":1400,"city":"Yverdon-les-Bains","lat":46.7785,"long":6.6411}},{"zipCode":1489,"city":"Murist","lat":46.7902,"long":6.8071,"closestMainCity":{"zipCode":1400,"city":"Yverdon-les-Bains","lat":46.7785,"long":6.6411}},{"zipCode":1509,"city":"Vucherens","lat":46.627,"long":6.7758,"closestMainCity":{"zipCode":1001,"city":"Lausanne","lat":46.5218,"long":6.633}},{"zipCode":1510,"city":"Moudon","lat":46.6676,"long":6.7978,"closestMainCity":{"zipCode":1400,"city":"Yverdon-les-Bains","lat":46.7785,"long":6.6411}},{"zipCode":1510,"city":"Syens","lat":46.6441,"long":6.7769,"closestMainCity":{"zipCode":1001,"city":"Lausanne","lat":46.5218,"long":6.633}},{"zipCode":1512,"city":"Chavannes-sur-Moudon","lat":46.6587,"long":6.8096,"closestMainCity":{"zipCode":1400,"city":"Yverdon-les-Bains","lat":46.7785,"long":6.6411}},{"zipCode":1513,"city":"Hermenches","lat":46.6403,"long":6.7627,"closestMainCity":{"zipCode":1001,"city":"Lausanne","lat":46.5218,"long":6.633}},{"zipCode":1513,"city":"Rossenges","lat":46.6535,"long":6.776,"closestMainCity":{"zipCode":1400,"city":"Yverdon-les-Bains","lat":46.7785,"long":6.6411}},{"zipCode":1514,"city":"Bussy-sur-Moudon","lat":46.6905,"long":6.8096,"closestMainCity":{"zipCode":1400,"city":"Yverdon-les-Bains","lat":46.7785,"long":6.6411}},{"zipCode":1515,"city":"Villars-le-Comte","lat":46.7131,"long":6.8014,"closestMainCity":{"zipCode":1400,"city":"Yverdon-les-Bains","lat":46.7785,"long":6.6411}},{"zipCode":1515,"city":"Neyruz-sur-Moudon","lat":46.6503,"long":6.6536,"closestMainCity":{"zipCode":1400,"city":"Yverdon-les-Bains","lat":46.7785,"long":6.6411}},{"zipCode":1521,"city":"Curtilles","lat":46.7004,"long":6.8506,"closestMainCity":{"zipCode":1400,"city":"Yverdon-les-Bains","lat":46.7785,"long":6.6411}},{"zipCode":1522,"city":"Lucens","lat":46.7085,"long":6.8393,"closestMainCity":{"zipCode":1400,"city":"Yverdon-les-Bains","lat":46.7785,"long":6.6411}},{"zipCode":1522,"city":"Oulens-sur-Lucens","lat":46.7085,"long":6.8393,"closestMainCity":{"zipCode":1400,"city":"Yverdon-les-Bains","lat":46.7785,"long":6.6411}},{"zipCode":1523,"city":"Granges-près-Marnand","lat":46.7765,"long":6.8959,"closestMainCity":{"zipCode":1400,"city":"Yverdon-les-Bains","lat":46.7785,"long":6.6411}},{"zipCode":1524,"city":"Marnand","lat":46.7573,"long":6.8991,"closestMainCity":{"zipCode":1630,"city":"Bulle","lat":46.618,"long":7.0569}},{"zipCode":1525,"city":"Henniez","lat":46.7422,"long":6.887,"closestMainCity":{"zipCode":1630,"city":"Bulle","lat":46.618,"long":7.0569}},{"zipCode":1525,"city":"Seigneux","lat":46.7276,"long":6.8822,"closestMainCity":{"zipCode":1630,"city":"Bulle","lat":46.618,"long":7.0569}},{"zipCode":1526,"city":"Cremin","lat":46.7089,"long":6.8326,"closestMainCity":{"zipCode":1400,"city":"Yverdon-les-Bains","lat":46.7785,"long":6.6411}},{"zipCode":1526,"city":"Forel-sur-Lucens","lat":46.7089,"long":6.8326,"closestMainCity":{"zipCode":1400,"city":"Yverdon-les-Bains","lat":46.7785,"long":6.6411}},{"zipCode":1527,"city":"Villeneuve FR","lat":46.7421,"long":6.8498,"closestMainCity":{"zipCode":1400,"city":"Yverdon-les-Bains","lat":46.7785,"long":6.6411}},{"zipCode":1528,"city":"Praratoud","lat":46.7353,"long":6.8489,"closestMainCity":{"zipCode":1400,"city":"Yverdon-les-Bains","lat":46.7785,"long":6.6411}},{"zipCode":1528,"city":"Surpierre","lat":46.7421,"long":6.8498,"closestMainCity":{"zipCode":1400,"city":"Yverdon-les-Bains","lat":46.7785,"long":6.6411}},{"zipCode":1529,"city":"Cheiry","lat":46.7504,"long":6.8355,"closestMainCity":{"zipCode":1400,"city":"Yverdon-les-Bains","lat":46.7785,"long":6.6411}},{"zipCode":1530,"city":"Payerne","lat":46.8219,"long":6.9382,"closestMainCity":{"zipCode":1700,"city":"Fribourg","lat":46.8024,"long":7.1513}},{"zipCode":1532,"city":"Fétigny","lat":46.7982,"long":6.9117,"closestMainCity":{"zipCode":1700,"city":"Fribourg","lat":46.8024,"long":7.1513}},{"zipCode":1533,"city":"Ménières","lat":46.7827,"long":6.8801,"closestMainCity":{"zipCode":1400,"city":"Yverdon-les-Bains","lat":46.7785,"long":6.6411}},{"zipCode":1534,"city":"Chapelle (Broye)","lat":46.7714,"long":6.8524,"closestMainCity":{"zipCode":1400,"city":"Yverdon-les-Bains","lat":46.7785,"long":6.6411}},{"zipCode":1534,"city":"Sassel","lat":46.777,"long":6.8571,"closestMainCity":{"zipCode":1400,"city":"Yverdon-les-Bains","lat":46.7785,"long":6.6411}},{"zipCode":1535,"city":"Combremont-le-Grand","lat":46.7617,"long":6.8182,"closestMainCity":{"zipCode":1400,"city":"Yverdon-les-Bains","lat":46.7785,"long":6.6411}},{"zipCode":1536,"city":"Combremont-le-Petit","lat":46.7494,"long":6.8093,"closestMainCity":{"zipCode":1400,"city":"Yverdon-les-Bains","lat":46.7785,"long":6.6411}},{"zipCode":1537,"city":"Champtauroz","lat":46.759,"long":6.7863,"closestMainCity":{"zipCode":1400,"city":"Yverdon-les-Bains","lat":46.7785,"long":6.6411}},{"zipCode":1538,"city":"Treytorrens (Payerne)","lat":46.7722,"long":6.8048,"closestMainCity":{"zipCode":1400,"city":"Yverdon-les-Bains","lat":46.7785,"long":6.6411}},{"zipCode":1541,"city":"Morens FR","lat":46.8436,"long":6.907,"closestMainCity":{"zipCode":2000,"city":"Neuchâtel","lat":46.9918,"long":6.931}},{"zipCode":1541,"city":"Sévaz","lat":46.8398,"long":6.877,"closestMainCity":{"zipCode":2000,"city":"Neuchâtel","lat":46.9918,"long":6.931}},{"zipCode":1541,"city":"Bussy FR","lat":46.8354,"long":6.8886,"closestMainCity":{"zipCode":2000,"city":"Neuchâtel","lat":46.9918,"long":6.931}},{"zipCode":1542,"city":"Rueyres-les-Prés","lat":46.857,"long":6.9111,"closestMainCity":{"zipCode":2000,"city":"Neuchâtel","lat":46.9918,"long":6.931}},{"zipCode":1543,"city":"Grandcour","lat":46.8719,"long":6.9284,"closestMainCity":{"zipCode":2000,"city":"Neuchâtel","lat":46.9918,"long":6.931}},{"zipCode":1544,"city":"Gletterens","lat":46.8949,"long":6.9369,"closestMainCity":{"zipCode":2000,"city":"Neuchâtel","lat":46.9918,"long":6.931}},{"zipCode":1545,"city":"Chevroux","lat":46.8884,"long":6.9069,"closestMainCity":{"zipCode":2000,"city":"Neuchâtel","lat":46.9918,"long":6.931}},{"zipCode":1551,"city":"Vers-chez-Perrin","lat":46.7977,"long":6.9436,"closestMainCity":{"zipCode":1700,"city":"Fribourg","lat":46.8024,"long":7.1513}},{"zipCode":1552,"city":"Trey","lat":46.7702,"long":6.9265,"closestMainCity":{"zipCode":1700,"city":"Fribourg","lat":46.8024,"long":7.1513}},{"zipCode":1553,"city":"Châtonnaye","lat":46.7545,"long":6.938,"closestMainCity":{"zipCode":1700,"city":"Fribourg","lat":46.8024,"long":7.1513}},{"zipCode":1554,"city":"Sédeilles","lat":46.7486,"long":6.9331,"closestMainCity":{"zipCode":1630,"city":"Bulle","lat":46.618,"long":7.0569}},{"zipCode":1554,"city":"Rossens VD","lat":46.7343,"long":6.9247,"closestMainCity":{"zipCode":1630,"city":"Bulle","lat":46.618,"long":7.0569}},{"zipCode":1555,"city":"Villarzel","lat":46.7476,"long":6.9122,"closestMainCity":{"zipCode":1630,"city":"Bulle","lat":46.618,"long":7.0569}},{"zipCode":1562,"city":"Corcelles-près-Payerne","lat":46.8332,"long":6.9623,"closestMainCity":{"zipCode":1700,"city":"Fribourg","lat":46.8024,"long":7.1513}},{"zipCode":1563,"city":"Dompierre FR","lat":46.8521,"long":6.9907,"closestMainCity":{"zipCode":1700,"city":"Fribourg","lat":46.8024,"long":7.1513}},{"zipCode":1564,"city":"Domdidier","lat":46.8672,"long":7.0134,"closestMainCity":{"zipCode":1700,"city":"Fribourg","lat":46.8024,"long":7.1513}},{"zipCode":1565,"city":"Vallon","lat":46.8838,"long":6.9554,"closestMainCity":{"zipCode":2000,"city":"Neuchâtel","lat":46.9918,"long":6.931}},{"zipCode":1565,"city":"Missy","lat":46.8801,"long":6.973,"closestMainCity":{"zipCode":2000,"city":"Neuchâtel","lat":46.9918,"long":6.931}},{"zipCode":1566,"city":"St-Aubin FR","lat":46.89,"long":6.9805,"closestMainCity":{"zipCode":2000,"city":"Neuchâtel","lat":46.9918,"long":6.931}},{"zipCode":1566,"city":"Les Friques","lat":46.9043,"long":6.9872,"closestMainCity":{"zipCode":2000,"city":"Neuchâtel","lat":46.9918,"long":6.931}},{"zipCode":1567,"city":"Delley","lat":46.9198,"long":6.9577,"closestMainCity":{"zipCode":2000,"city":"Neuchâtel","lat":46.9918,"long":6.931}},{"zipCode":1568,"city":"Portalban","lat":46.9189,"long":6.9563,"closestMainCity":{"zipCode":2000,"city":"Neuchâtel","lat":46.9918,"long":6.931}},{"zipCode":1580,"city":"Oleyres","lat":46.8545,"long":7.0379,"closestMainCity":{"zipCode":1700,"city":"Fribourg","lat":46.8024,"long":7.1513}},{"zipCode":1580,"city":"Avenches","lat":46.88,"long":7.0407,"closestMainCity":{"zipCode":1700,"city":"Fribourg","lat":46.8024,"long":7.1513}},{"zipCode":1580,"city":"Donatyre","lat":46.8673,"long":7.0393,"closestMainCity":{"zipCode":1700,"city":"Fribourg","lat":46.8024,"long":7.1513}},{"zipCode":1583,"city":"Villarepos","lat":46.8643,"long":7.1264,"closestMainCity":{"zipCode":1700,"city":"Fribourg","lat":46.8024,"long":7.1513}},{"zipCode":1584,"city":"Villars-le-Grand","lat":46.9049,"long":6.99,"closestMainCity":{"zipCode":2000,"city":"Neuchâtel","lat":46.9918,"long":6.931}},{"zipCode":1585,"city":"Cotterd","lat":46.9209,"long":7.0224,"closestMainCity":{"zipCode":2000,"city":"Neuchâtel","lat":46.9918,"long":6.931}},{"zipCode":1585,"city":"Bellerive VD","lat":46.9234,"long":7.0221,"closestMainCity":{"zipCode":2000,"city":"Neuchâtel","lat":46.9918,"long":6.931}},{"zipCode":1585,"city":"Salavaux","lat":46.9197,"long":7.0232,"closestMainCity":{"zipCode":2000,"city":"Neuchâtel","lat":46.9918,"long":6.931}},{"zipCode":1586,"city":"Vallamand","lat":46.9293,"long":7.0403,"closestMainCity":{"zipCode":2000,"city":"Neuchâtel","lat":46.9918,"long":6.931}},{"zipCode":1587,"city":"Constantine","lat":46.9183,"long":7.0086,"closestMainCity":{"zipCode":2000,"city":"Neuchâtel","lat":46.9918,"long":6.931}},{"zipCode":1587,"city":"Montmagny","lat":46.9272,"long":7.0075,"closestMainCity":{"zipCode":2000,"city":"Neuchâtel","lat":46.9918,"long":6.931}},{"zipCode":1588,"city":"Cudrefin","lat":46.9558,"long":7.0185,"closestMainCity":{"zipCode":2000,"city":"Neuchâtel","lat":46.9918,"long":6.931}},{"zipCode":1589,"city":"Chabrey","lat":46.9269,"long":6.9816,"closestMainCity":{"zipCode":2000,"city":"Neuchâtel","lat":46.9918,"long":6.931}},{"zipCode":1595,"city":"Clavaleyres","lat":46.8991,"long":7.0928,"closestMainCity":{"zipCode":1700,"city":"Fribourg","lat":46.8024,"long":7.1513}},{"zipCode":1595,"city":"Faoug","lat":46.9083,"long":7.078,"closestMainCity":{"zipCode":1700,"city":"Fribourg","lat":46.8024,"long":7.1513}},{"zipCode":1607,"city":"Palézieux-Village","lat":46.5553,"long":6.8311,"closestMainCity":{"zipCode":1820,"city":"Montreux","lat":46.433,"long":6.9114}},{"zipCode":1607,"city":"Les Tavernes","lat":46.5548,"long":6.8106,"closestMainCity":{"zipCode":1001,"city":"Lausanne","lat":46.5218,"long":6.633}},{"zipCode":1607,"city":"Palézieux","lat":46.5419,"long":6.8399,"closestMainCity":{"zipCode":1820,"city":"Montreux","lat":46.433,"long":6.9114}},{"zipCode":1607,"city":"Les Thioleyres","lat":46.5389,"long":6.8114,"closestMainCity":{"zipCode":1001,"city":"Lausanne","lat":46.5218,"long":6.633}},{"zipCode":1608,"city":"Chapelle (Glâne)","lat":46.5887,"long":6.8372,"closestMainCity":{"zipCode":1630,"city":"Bulle","lat":46.618,"long":7.0569}},{"zipCode":1608,"city":"Chesalles-sur-Oron","lat":46.5775,"long":6.8558,"closestMainCity":{"zipCode":1630,"city":"Bulle","lat":46.618,"long":7.0569}},{"zipCode":1608,"city":"Oron-le-Châtel","lat":46.573,"long":6.8404,"closestMainCity":{"zipCode":1820,"city":"Montreux","lat":46.433,"long":6.9114}},{"zipCode":1608,"city":"Bussigny-sur-Oron","lat":46.5698,"long":6.8648,"closestMainCity":{"zipCode":1820,"city":"Montreux","lat":46.433,"long":6.9114}},{"zipCode":1609,"city":"Besencens","lat":46.5875,"long":6.8687,"closestMainCity":{"zipCode":1630,"city":"Bulle","lat":46.618,"long":7.0569}},{"zipCode":1609,"city":"St-Martin FR","lat":46.5763,"long":6.8698,"closestMainCity":{"zipCode":1630,"city":"Bulle","lat":46.618,"long":7.0569}},{"zipCode":1609,"city":"Fiaugères","lat":46.5873,"long":6.8927,"closestMainCity":{"zipCode":1630,"city":"Bulle","lat":46.618,"long":7.0569}},{"zipCode":1609,"city":"Fiaugères","lat":46.5873,"long":6.8927,"closestMainCity":{"zipCode":1630,"city":"Bulle","lat":46.618,"long":7.0569}},{"zipCode":1610,"city":"Oron-la-Ville","lat":46.5709,"long":6.8256,"closestMainCity":{"zipCode":1001,"city":"Lausanne","lat":46.5218,"long":6.633}},{"zipCode":1610,"city":"Vuibroye","lat":46.5714,"long":6.8047,"closestMainCity":{"zipCode":1001,"city":"Lausanne","lat":46.5218,"long":6.633}},{"zipCode":1610,"city":"Châtillens","lat":46.5647,"long":6.8128,"closestMainCity":{"zipCode":1001,"city":"Lausanne","lat":46.5218,"long":6.633}},{"zipCode":1611,"city":"Le Crêt-près-Semsales","lat":46.609,"long":6.9097,"closestMainCity":{"zipCode":1630,"city":"Bulle","lat":46.618,"long":7.0569}},{"zipCode":1612,"city":"Ecoteaux","lat":46.5469,"long":6.8641,"closestMainCity":{"zipCode":1820,"city":"Montreux","lat":46.433,"long":6.9114}},{"zipCode":1613,"city":"Maracon","lat":46.5501,"long":6.8722,"closestMainCity":{"zipCode":1820,"city":"Montreux","lat":46.433,"long":6.9114}},{"zipCode":1614,"city":"Granges (Veveyse)","lat":46.5261,"long":6.83,"closestMainCity":{"zipCode":1820,"city":"Montreux","lat":46.433,"long":6.9114}},{"zipCode":1615,"city":"Bossonnens","lat":46.5285,"long":6.8525,"closestMainCity":{"zipCode":1820,"city":"Montreux","lat":46.433,"long":6.9114}},{"zipCode":1616,"city":"Attalens","lat":46.5056,"long":6.8504,"closestMainCity":{"zipCode":1820,"city":"Montreux","lat":46.433,"long":6.9114}},{"zipCode":1617,"city":"Tatroz","lat":46.527,"long":6.8669,"closestMainCity":{"zipCode":1820,"city":"Montreux","lat":46.433,"long":6.9114}},{"zipCode":1617,"city":"Remaufens","lat":46.5287,"long":6.8826,"closestMainCity":{"zipCode":1820,"city":"Montreux","lat":46.433,"long":6.9114}},{"zipCode":1618,"city":"Châtel-St-Denis","lat":46.5269,"long":6.9008,"closestMainCity":{"zipCode":1820,"city":"Montreux","lat":46.433,"long":6.9114}},{"zipCode":1619,"city":"Les Paccots","lat":46.5241,"long":6.9463,"closestMainCity":{"zipCode":1820,"city":"Montreux","lat":46.433,"long":6.9114}},{"zipCode":1623,"city":"Semsales","lat":46.5732,"long":6.9295,"closestMainCity":{"zipCode":1630,"city":"Bulle","lat":46.618,"long":7.0569}},{"zipCode":1624,"city":"La Verrerie","lat":46.5995,"long":6.9203,"closestMainCity":{"zipCode":1630,"city":"Bulle","lat":46.618,"long":7.0569}},{"zipCode":1624,"city":"Progens","lat":46.5848,"long":6.9111,"closestMainCity":{"zipCode":1630,"city":"Bulle","lat":46.618,"long":7.0569}},{"zipCode":1624,"city":"Progens","lat":46.5699,"long":6.9557,"closestMainCity":{"zipCode":1630,"city":"Bulle","lat":46.618,"long":7.0569}},{"zipCode":1624,"city":"Grattavache","lat":46.596,"long":6.9134,"closestMainCity":{"zipCode":1630,"city":"Bulle","lat":46.618,"long":7.0569}},{"zipCode":1625,"city":"Sâles (Gruyère)","lat":46.6347,"long":6.9734,"closestMainCity":{"zipCode":1630,"city":"Bulle","lat":46.618,"long":7.0569}},{"zipCode":1625,"city":"Maules","lat":46.64,"long":6.9921,"closestMainCity":{"zipCode":1630,"city":"Bulle","lat":46.618,"long":7.0569}},{"zipCode":1626,"city":"Treyfayes","lat":46.6541,"long":6.9533,"closestMainCity":{"zipCode":1630,"city":"Bulle","lat":46.618,"long":7.0569}},{"zipCode":1626,"city":"Rueyres-Treyfayes","lat":46.653,"long":6.9623,"closestMainCity":{"zipCode":1630,"city":"Bulle","lat":46.618,"long":7.0569}},{"zipCode":1626,"city":"Romanens","lat":46.652,"long":6.9714,"closestMainCity":{"zipCode":1630,"city":"Bulle","lat":46.618,"long":7.0569}},{"zipCode":1627,"city":"Vaulruz","lat":46.6216,"long":6.9882,"closestMainCity":{"zipCode":1630,"city":"Bulle","lat":46.618,"long":7.0569}},{"zipCode":1628,"city":"Vuadens","lat":46.6155,"long":7.0173,"closestMainCity":{"zipCode":1630,"city":"Bulle","lat":46.618,"long":7.0569}},{"zipCode":1630,"city":"Bulle","lat":46.618,"long":7.0569,"closestMainCity":{"zipCode":1630,"city":"Bulle","lat":46.618,"long":7.0569}},{"zipCode":1632,"city":"Riaz","lat":46.6422,"long":7.0618,"closestMainCity":{"zipCode":1630,"city":"Bulle","lat":46.618,"long":7.0569}},{"zipCode":1633,"city":"Vuippens","lat":46.66,"long":7.0746,"closestMainCity":{"zipCode":1630,"city":"Bulle","lat":46.618,"long":7.0569}},{"zipCode":1633,"city":"Marsens","lat":46.6564,"long":7.0595,"closestMainCity":{"zipCode":1630,"city":"Bulle","lat":46.618,"long":7.0569}},{"zipCode":1634,"city":"La Roche FR","lat":46.6962,"long":7.1372,"closestMainCity":{"zipCode":1630,"city":"Bulle","lat":46.618,"long":7.0569}},{"zipCode":1635,"city":"La Tour-de-Trême","lat":46.6106,"long":7.065,"closestMainCity":{"zipCode":1630,"city":"Bulle","lat":46.618,"long":7.0569}},{"zipCode":1636,"city":"Broc","lat":46.6051,"long":7.0989,"closestMainCity":{"zipCode":1630,"city":"Bulle","lat":46.618,"long":7.0569}},{"zipCode":1637,"city":"Charmey (Gruyère)","lat":46.6196,"long":7.1649,"closestMainCity":{"zipCode":1630,"city":"Bulle","lat":46.618,"long":7.0569}},{"zipCode":1638,"city":"Morlon","lat":46.6256,"long":7.0838,"closestMainCity":{"zipCode":1630,"city":"Bulle","lat":46.618,"long":7.0569}},{"zipCode":1642,"city":"Sorens","lat":46.6691,"long":7.0525,"closestMainCity":{"zipCode":1630,"city":"Bulle","lat":46.618,"long":7.0569}},{"zipCode":1643,"city":"Gumefens","lat":46.6779,"long":7.0766,"closestMainCity":{"zipCode":1630,"city":"Bulle","lat":46.618,"long":7.0569}},{"zipCode":1644,"city":"Avry-devant-Pont","lat":46.6871,"long":7.0876,"closestMainCity":{"zipCode":1630,"city":"Bulle","lat":46.618,"long":7.0569}},{"zipCode":1645,"city":"Le Bry","lat":46.7046,"long":7.0825,"closestMainCity":{"zipCode":1630,"city":"Bulle","lat":46.618,"long":7.0569}},{"zipCode":1646,"city":"Echarlens","lat":46.6478,"long":7.0742,"closestMainCity":{"zipCode":1630,"city":"Bulle","lat":46.618,"long":7.0569}},{"zipCode":1647,"city":"Corbières","lat":46.6595,"long":7.101,"closestMainCity":{"zipCode":1630,"city":"Bulle","lat":46.618,"long":7.0569}},{"zipCode":1648,"city":"Hauteville","lat":46.6701,"long":7.1104,"closestMainCity":{"zipCode":1630,"city":"Bulle","lat":46.618,"long":7.0569}},{"zipCode":1649,"city":"Pont-la-Ville","lat":46.7,"long":7.1,"closestMainCity":{"zipCode":1630,"city":"Bulle","lat":46.618,"long":7.0569}},{"zipCode":1651,"city":"Villarvolard","lat":46.6453,"long":7.1074,"closestMainCity":{"zipCode":1630,"city":"Bulle","lat":46.618,"long":7.0569}},{"zipCode":1652,"city":"Villarbeney","lat":46.6302,"long":7.1095,"closestMainCity":{"zipCode":1630,"city":"Bulle","lat":46.618,"long":7.0569}},{"zipCode":1652,"city":"Botterens","lat":46.616,"long":7.1117,"closestMainCity":{"zipCode":1630,"city":"Bulle","lat":46.618,"long":7.0569}},{"zipCode":1653,"city":"Châtel-sur-Montsalvens","lat":46.6165,"long":7.1327,"closestMainCity":{"zipCode":1630,"city":"Bulle","lat":46.618,"long":7.0569}},{"zipCode":1653,"city":"Crésuz","lat":46.6206,"long":7.1426,"closestMainCity":{"zipCode":1630,"city":"Bulle","lat":46.618,"long":7.0569}},{"zipCode":1654,"city":"Cerniat FR","lat":46.6333,"long":7.1573,"closestMainCity":{"zipCode":1630,"city":"Bulle","lat":46.618,"long":7.0569}},{"zipCode":1656,"city":"Jaun","lat":46.6113,"long":7.2759,"closestMainCity":{"zipCode":1630,"city":"Bulle","lat":46.618,"long":7.0569}},{"zipCode":1656,"city":"Im Fang","lat":46.5988,"long":7.2362,"closestMainCity":{"zipCode":1630,"city":"Bulle","lat":46.618,"long":7.0569}},{"zipCode":1657,"city":"Abländschen","lat":46.5724,"long":7.2892,"closestMainCity":{"zipCode":1630,"city":"Bulle","lat":46.618,"long":7.0569}},{"zipCode":1658,"city":"La Tine","lat":46.4696,"long":7.0522,"closestMainCity":{"zipCode":1820,"city":"Montreux","lat":46.433,"long":6.9114}},{"zipCode":1658,"city":"Rossinière","lat":46.4676,"long":7.0837,"closestMainCity":{"zipCode":1820,"city":"Montreux","lat":46.433,"long":6.9114}},{"zipCode":1659,"city":"Rougemont","lat":46.4881,"long":7.2066,"closestMainCity":{"zipCode":1630,"city":"Bulle","lat":46.618,"long":7.0569}},{"zipCode":1659,"city":"Flendruz","lat":46.4851,"long":7.1827,"closestMainCity":{"zipCode":1630,"city":"Bulle","lat":46.618,"long":7.0569}},{"zipCode":1660,"city":"La Lécherette","lat":46.4199,"long":7.1073,"closestMainCity":{"zipCode":1820,"city":"Montreux","lat":46.433,"long":6.9114}},{"zipCode":1660,"city":"Les Moulins","lat":46.4619,"long":7.1051,"closestMainCity":{"zipCode":1820,"city":"Montreux","lat":46.433,"long":6.9114}},{"zipCode":1660,"city":"L'Etivaz","lat":46.4248,"long":7.1462,"closestMainCity":{"zipCode":1820,"city":"Montreux","lat":46.433,"long":6.9114}},{"zipCode":1660,"city":"Château-d'Oex","lat":46.4745,"long":7.1316,"closestMainCity":{"zipCode":1630,"city":"Bulle","lat":46.618,"long":7.0569}},{"zipCode":1661,"city":"Le Pâquier-Montbarry","lat":46.5948,"long":7.0533,"closestMainCity":{"zipCode":1630,"city":"Bulle","lat":46.618,"long":7.0569}},{"zipCode":1663,"city":"Gruyères","lat":46.5834,"long":7.0821,"closestMainCity":{"zipCode":1630,"city":"Bulle","lat":46.618,"long":7.0569}},{"zipCode":1663,"city":"Moléson-sur-Gruyères","lat":46.5851,"long":7.0803,"closestMainCity":{"zipCode":1630,"city":"Bulle","lat":46.618,"long":7.0569}},{"zipCode":1663,"city":"Pringy","lat":46.5823,"long":7.0733,"closestMainCity":{"zipCode":1630,"city":"Bulle","lat":46.618,"long":7.0569}},{"zipCode":1663,"city":"Epagny","lat":46.5896,"long":7.0856,"closestMainCity":{"zipCode":1630,"city":"Bulle","lat":46.618,"long":7.0569}},{"zipCode":1665,"city":"Estavannens","lat":46.5605,"long":7.1019,"closestMainCity":{"zipCode":1630,"city":"Bulle","lat":46.618,"long":7.0569}},{"zipCode":1666,"city":"Villars-sous-Mont","lat":46.5412,"long":7.0704,"closestMainCity":{"zipCode":1630,"city":"Bulle","lat":46.618,"long":7.0569}},{"zipCode":1666,"city":"Grandvillard","lat":46.539,"long":7.0857,"closestMainCity":{"zipCode":1630,"city":"Bulle","lat":46.618,"long":7.0569}},{"zipCode":1667,"city":"Enney","lat":46.5667,"long":7.0842,"closestMainCity":{"zipCode":1630,"city":"Bulle","lat":46.618,"long":7.0569}},{"zipCode":1669,"city":"Neirivue","lat":46.525,"long":7.0582,"closestMainCity":{"zipCode":1630,"city":"Bulle","lat":46.618,"long":7.0569}},{"zipCode":1669,"city":"Les Sciernes-d'Albeuve","lat":46.4958,"long":7.0337,"closestMainCity":{"zipCode":1820,"city":"Montreux","lat":46.433,"long":6.9114}},{"zipCode":1669,"city":"Lessoc","lat":46.5048,"long":7.0621,"closestMainCity":{"zipCode":1630,"city":"Bulle","lat":46.618,"long":7.0569}},{"zipCode":1669,"city":"Albeuve","lat":46.5173,"long":7.0567,"closestMainCity":{"zipCode":1630,"city":"Bulle","lat":46.618,"long":7.0569}},{"zipCode":1669,"city":"Montbovon","lat":46.4882,"long":7.0437,"closestMainCity":{"zipCode":1820,"city":"Montreux","lat":46.433,"long":6.9114}},{"zipCode":1670,"city":"Esmonts","lat":46.6432,"long":6.8451,"closestMainCity":{"zipCode":1630,"city":"Bulle","lat":46.618,"long":7.0569}},{"zipCode":1670,"city":"Ursy","lat":46.6335,"long":6.8371,"closestMainCity":{"zipCode":1630,"city":"Bulle","lat":46.618,"long":7.0569}},{"zipCode":1670,"city":"Bionnens","lat":46.6351,"long":6.8555,"closestMainCity":{"zipCode":1630,"city":"Bulle","lat":46.618,"long":7.0569}},{"zipCode":1673,"city":"Auboranges","lat":46.5846,"long":6.8045,"closestMainCity":{"zipCode":1001,"city":"Lausanne","lat":46.5218,"long":6.633}},{"zipCode":1673,"city":"Gillarens","lat":46.5889,"long":6.8281,"closestMainCity":{"zipCode":1001,"city":"Lausanne","lat":46.5218,"long":6.633}},{"zipCode":1673,"city":"Promasens","lat":46.6028,"long":6.8238,"closestMainCity":{"zipCode":1001,"city":"Lausanne","lat":46.5218,"long":6.633}},{"zipCode":1673,"city":"Rue","lat":46.6192,"long":6.8223,"closestMainCity":{"zipCode":1630,"city":"Bulle","lat":46.618,"long":7.0569}},{"zipCode":1673,"city":"Ecublens FR","lat":46.6074,"long":6.8089,"closestMainCity":{"zipCode":1001,"city":"Lausanne","lat":46.5218,"long":6.633}},{"zipCode":1674,"city":"Montet (Glâne)","lat":46.6413,"long":6.813,"closestMainCity":{"zipCode":1630,"city":"Bulle","lat":46.618,"long":7.0569}},{"zipCode":1674,"city":"Morlens","lat":46.6542,"long":6.8374,"closestMainCity":{"zipCode":1630,"city":"Bulle","lat":46.618,"long":7.0569}},{"zipCode":1674,"city":"Vuarmarens","lat":46.6478,"long":6.8287,"closestMainCity":{"zipCode":1630,"city":"Bulle","lat":46.618,"long":7.0569}},{"zipCode":1675,"city":"Vauderens","lat":46.6228,"long":6.8507,"closestMainCity":{"zipCode":1630,"city":"Bulle","lat":46.618,"long":7.0569}},{"zipCode":1675,"city":"Mossel","lat":46.6086,"long":6.8516,"closestMainCity":{"zipCode":1630,"city":"Bulle","lat":46.618,"long":7.0569}},{"zipCode":1675,"city":"Blessens","lat":46.612,"long":6.8388,"closestMainCity":{"zipCode":1630,"city":"Bulle","lat":46.618,"long":7.0569}},{"zipCode":1676,"city":"Chavannes-les-Forts","lat":46.653,"long":6.8985,"closestMainCity":{"zipCode":1630,"city":"Bulle","lat":46.618,"long":7.0569}},{"zipCode":1677,"city":"Prez-vers-Siviriez","lat":46.6397,"long":6.8748,"closestMainCity":{"zipCode":1630,"city":"Bulle","lat":46.618,"long":7.0569}},{"zipCode":1678,"city":"Siviriez","lat":46.6585,"long":6.8777,"closestMainCity":{"zipCode":1630,"city":"Bulle","lat":46.618,"long":7.0569}},{"zipCode":1679,"city":"Villaraboud","lat":46.6607,"long":6.9135,"closestMainCity":{"zipCode":1630,"city":"Bulle","lat":46.618,"long":7.0569}},{"zipCode":1680,"city":"Romont FR","lat":46.6965,"long":6.919,"closestMainCity":{"zipCode":1630,"city":"Bulle","lat":46.618,"long":7.0569}},{"zipCode":1680,"city":"Berlens","lat":46.6959,"long":6.9541,"closestMainCity":{"zipCode":1630,"city":"Bulle","lat":46.618,"long":7.0569}},{"zipCode":1681,"city":"Hennens","lat":46.6837,"long":6.8864,"closestMainCity":{"zipCode":1630,"city":"Bulle","lat":46.618,"long":7.0569}},{"zipCode":1681,"city":"Billens","lat":46.6922,"long":6.9008,"closestMainCity":{"zipCode":1630,"city":"Bulle","lat":46.618,"long":7.0569}},{"zipCode":1682,"city":"Prévonloup","lat":46.6979,"long":6.8828,"closestMainCity":{"zipCode":1630,"city":"Bulle","lat":46.618,"long":7.0569}},{"zipCode":1682,"city":"Lovatens","lat":46.692,"long":6.8607,"closestMainCity":{"zipCode":1630,"city":"Bulle","lat":46.618,"long":7.0569}},{"zipCode":1682,"city":"Villars-Bramard","lat":46.7182,"long":6.9031,"closestMainCity":{"zipCode":1630,"city":"Bulle","lat":46.618,"long":7.0569}},{"zipCode":1682,"city":"Cerniaz VD","lat":46.7279,"long":6.8946,"closestMainCity":{"zipCode":1630,"city":"Bulle","lat":46.618,"long":7.0569}},{"zipCode":1682,"city":"Dompierre VD","lat":46.7083,"long":6.8831,"closestMainCity":{"zipCode":1630,"city":"Bulle","lat":46.618,"long":7.0569}},{"zipCode":1683,"city":"Chesalles-sur-Moudon","lat":46.6762,"long":6.8506,"closestMainCity":{"zipCode":1630,"city":"Bulle","lat":46.618,"long":7.0569}},{"zipCode":1683,"city":"Sarzens","lat":46.7089,"long":6.8326,"closestMainCity":{"zipCode":1400,"city":"Yverdon-les-Bains","lat":46.7785,"long":6.6411}},{"zipCode":1683,"city":"Brenles","lat":46.7089,"long":6.8326,"closestMainCity":{"zipCode":1400,"city":"Yverdon-les-Bains","lat":46.7785,"long":6.6411}},{"zipCode":1684,"city":"Mézières FR","lat":46.6796,"long":6.9263,"closestMainCity":{"zipCode":1630,"city":"Bulle","lat":46.618,"long":7.0569}},{"zipCode":1685,"city":"Villariaz","lat":46.6662,"long":6.9409,"closestMainCity":{"zipCode":1630,"city":"Bulle","lat":46.618,"long":7.0569}},{"zipCode":1686,"city":"Grangettes-près-Romont","lat":46.6717,"long":6.9753,"closestMainCity":{"zipCode":1630,"city":"Bulle","lat":46.618,"long":7.0569}},{"zipCode":1686,"city":"La Neirigue","lat":46.683,"long":6.9525,"closestMainCity":{"zipCode":1630,"city":"Bulle","lat":46.618,"long":7.0569}},{"zipCode":1687,"city":"La Magne","lat":46.6347,"long":6.9323,"closestMainCity":{"zipCode":1630,"city":"Bulle","lat":46.618,"long":7.0569}},{"zipCode":1687,"city":"Estévenens","lat":46.6703,"long":6.9551,"closestMainCity":{"zipCode":1630,"city":"Bulle","lat":46.618,"long":7.0569}},{"zipCode":1687,"city":"Vuisternens-devant-Romont","lat":46.6478,"long":6.9411,"closestMainCity":{"zipCode":1630,"city":"Bulle","lat":46.618,"long":7.0569}},{"zipCode":1688,"city":"Lieffrens","lat":46.638,"long":6.9017,"closestMainCity":{"zipCode":1630,"city":"Bulle","lat":46.618,"long":7.0569}},{"zipCode":1688,"city":"Sommentier","lat":46.6397,"long":6.9131,"closestMainCity":{"zipCode":1630,"city":"Bulle","lat":46.618,"long":7.0569}},{"zipCode":1689,"city":"Le Châtelard-près-Romont","lat":46.6804,"long":6.9792,"closestMainCity":{"zipCode":1630,"city":"Bulle","lat":46.618,"long":7.0569}},{"zipCode":1690,"city":"Villaz-St-Pierre","lat":46.7207,"long":6.9564,"closestMainCity":{"zipCode":1630,"city":"Bulle","lat":46.618,"long":7.0569}},{"zipCode":1690,"city":"Lussy FR","lat":46.7173,"long":6.948,"closestMainCity":{"zipCode":1630,"city":"Bulle","lat":46.618,"long":7.0569}},{"zipCode":1691,"city":"Villarimboud","lat":46.7417,"long":6.9652,"closestMainCity":{"zipCode":1630,"city":"Bulle","lat":46.618,"long":7.0569}},{"zipCode":1692,"city":"Massonnens","lat":46.6966,"long":6.9762,"closestMainCity":{"zipCode":1630,"city":"Bulle","lat":46.618,"long":7.0569}},{"zipCode":1694,"city":"Villargiroud","lat":46.7055,"long":7.0022,"closestMainCity":{"zipCode":1630,"city":"Bulle","lat":46.618,"long":7.0569}},{"zipCode":1694,"city":"Orsonnens","lat":46.7157,"long":6.995,"closestMainCity":{"zipCode":1630,"city":"Bulle","lat":46.618,"long":7.0569}},{"zipCode":1694,"city":"Villarsiviriaux","lat":46.6994,"long":7.0103,"closestMainCity":{"zipCode":1630,"city":"Bulle","lat":46.618,"long":7.0569}},{"zipCode":1694,"city":"Chavannes-sous-Orsonnens","lat":46.7273,"long":6.9917,"closestMainCity":{"zipCode":1630,"city":"Bulle","lat":46.618,"long":7.0569}},{"zipCode":1695,"city":"Villarsel-le-Gibloux","lat":46.713,"long":7.0177,"closestMainCity":{"zipCode":1630,"city":"Bulle","lat":46.618,"long":7.0569}},{"zipCode":1695,"city":"Villarlod","lat":46.7066,"long":7.0218,"closestMainCity":{"zipCode":1630,"city":"Bulle","lat":46.618,"long":7.0569}},{"zipCode":1695,"city":"Estavayer-le-Gibloux","lat":46.7241,"long":7.0263,"closestMainCity":{"zipCode":1630,"city":"Bulle","lat":46.618,"long":7.0569}},{"zipCode":1695,"city":"Rueyres-St-Laurent","lat":46.7129,"long":7.0361,"closestMainCity":{"zipCode":1630,"city":"Bulle","lat":46.618,"long":7.0569}},{"zipCode":1696,"city":"Vuisternens-en-Ogoz","lat":46.7081,"long":7.054,"closestMainCity":{"zipCode":1630,"city":"Bulle","lat":46.618,"long":7.0569}},{"zipCode":1697,"city":"Les Ecasseys","lat":46.623,"long":6.9108,"closestMainCity":{"zipCode":1630,"city":"Bulle","lat":46.618,"long":7.0569}},{"zipCode":1697,"city":"La Joux FR","lat":46.6306,"long":6.9401,"closestMainCity":{"zipCode":1630,"city":"Bulle","lat":46.618,"long":7.0569}},{"zipCode":1699,"city":"Pont (Veveyse)","lat":46.5885,"long":6.8513,"closestMainCity":{"zipCode":1630,"city":"Bulle","lat":46.618,"long":7.0569}},{"zipCode":1699,"city":"Porsel","lat":46.6015,"long":6.8658,"closestMainCity":{"zipCode":1630,"city":"Bulle","lat":46.618,"long":7.0569}},{"zipCode":1699,"city":"Bouloz","lat":46.6124,"long":6.8827,"closestMainCity":{"zipCode":1630,"city":"Bulle","lat":46.618,"long":7.0569}},{"zipCode":1699,"city":"Porsel","lat":46.6015,"long":6.8658,"closestMainCity":{"zipCode":1630,"city":"Bulle","lat":46.618,"long":7.0569}},{"zipCode":1700,"city":"Fribourg","lat":46.8024,"long":7.1513,"closestMainCity":{"zipCode":1700,"city":"Fribourg","lat":46.8024,"long":7.1513}},{"zipCode":1712,"city":"Tafers","lat":46.8148,"long":7.2185,"closestMainCity":{"zipCode":1700,"city":"Fribourg","lat":46.8024,"long":7.1513}},{"zipCode":1713,"city":"St. Antoni","lat":46.8221,"long":7.2609,"closestMainCity":{"zipCode":1700,"city":"Fribourg","lat":46.8024,"long":7.1513}},{"zipCode":1714,"city":"Heitenried","lat":46.8276,"long":7.2994,"closestMainCity":{"zipCode":1700,"city":"Fribourg","lat":46.8024,"long":7.1513}},{"zipCode":1715,"city":"Alterswil FR","lat":46.7959,"long":7.2588,"closestMainCity":{"zipCode":1700,"city":"Fribourg","lat":46.8024,"long":7.1513}},{"zipCode":1716,"city":"Plaffeien","lat":46.742,"long":7.2867,"closestMainCity":{"zipCode":1700,"city":"Fribourg","lat":46.8024,"long":7.1513}},{"zipCode":1716,"city":"Schwarzsee","lat":46.671,"long":7.2818,"closestMainCity":{"zipCode":1700,"city":"Fribourg","lat":46.8024,"long":7.1513}},{"zipCode":1716,"city":"Oberschrot","lat":46.7413,"long":7.2815,"closestMainCity":{"zipCode":1700,"city":"Fribourg","lat":46.8024,"long":7.1513}},{"zipCode":1717,"city":"St. Ursen","lat":46.7869,"long":7.2243,"closestMainCity":{"zipCode":1700,"city":"Fribourg","lat":46.8024,"long":7.1513}},{"zipCode":1718,"city":"Rechthalten","lat":46.7677,"long":7.2403,"closestMainCity":{"zipCode":1700,"city":"Fribourg","lat":46.8024,"long":7.1513}},{"zipCode":1719,"city":"Zumholz","lat":46.6871,"long":7.3155,"closestMainCity":{"zipCode":1700,"city":"Fribourg","lat":46.8024,"long":7.1513}},{"zipCode":1719,"city":"Brünisried","lat":46.7578,"long":7.2785,"closestMainCity":{"zipCode":1700,"city":"Fribourg","lat":46.8024,"long":7.1513}},{"zipCode":1720,"city":"Corminboeuf","lat":46.8103,"long":7.1054,"closestMainCity":{"zipCode":1700,"city":"Fribourg","lat":46.8024,"long":7.1513}},{"zipCode":1720,"city":"Chésopelloz","lat":46.8022,"long":7.0963,"closestMainCity":{"zipCode":1700,"city":"Fribourg","lat":46.8024,"long":7.1513}},{"zipCode":1721,"city":"Cournillens","lat":46.8587,"long":7.1026,"closestMainCity":{"zipCode":1700,"city":"Fribourg","lat":46.8024,"long":7.1513}},{"zipCode":1721,"city":"Misery","lat":46.8524,"long":7.0639,"closestMainCity":{"zipCode":1700,"city":"Fribourg","lat":46.8024,"long":7.1513}},{"zipCode":1721,"city":"Cormérod","lat":46.8671,"long":7.0896,"closestMainCity":{"zipCode":1700,"city":"Fribourg","lat":46.8024,"long":7.1513}},{"zipCode":1721,"city":"Courtion","lat":46.8572,"long":7.0689,"closestMainCity":{"zipCode":1700,"city":"Fribourg","lat":46.8024,"long":7.1513}},{"zipCode":1722,"city":"Bourguillon","lat":46.8013,"long":7.1777,"closestMainCity":{"zipCode":1700,"city":"Fribourg","lat":46.8024,"long":7.1513}},{"zipCode":1723,"city":"Marly","lat":46.7761,"long":7.1646,"closestMainCity":{"zipCode":1700,"city":"Fribourg","lat":46.8024,"long":7.1513}},{"zipCode":1723,"city":"Pierrafortscha","lat":46.7748,"long":7.1858,"closestMainCity":{"zipCode":1700,"city":"Fribourg","lat":46.8024,"long":7.1513}},{"zipCode":1723,"city":"Villarsel-sur-Marly","lat":46.7618,"long":7.172,"closestMainCity":{"zipCode":1700,"city":"Fribourg","lat":46.8024,"long":7.1513}},{"zipCode":1724,"city":"Le Mouret","lat":46.7318,"long":7.1875,"closestMainCity":{"zipCode":1700,"city":"Fribourg","lat":46.8024,"long":7.1513}},{"zipCode":1724,"city":"Montévraz","lat":46.7263,"long":7.1759,"closestMainCity":{"zipCode":1700,"city":"Fribourg","lat":46.8024,"long":7.1513}},{"zipCode":1724,"city":"Bonnefontaine","lat":46.7414,"long":7.2011,"closestMainCity":{"zipCode":1700,"city":"Fribourg","lat":46.8024,"long":7.1513}},{"zipCode":1724,"city":"Ferpicloz","lat":46.7482,"long":7.1622,"closestMainCity":{"zipCode":1700,"city":"Fribourg","lat":46.8024,"long":7.1513}},{"zipCode":1724,"city":"Zénauva","lat":46.735,"long":7.182,"closestMainCity":{"zipCode":1700,"city":"Fribourg","lat":46.8024,"long":7.1513}},