[{"city":"Lausanne","zipCode":1000,"lat":46.5182,"long":6.6329,"closestMainCity":{"city":"Lausanne","zipCode":1001,"lat":46.5218,"long":6.633}},{"city":"Lausanne","zipCode":1001,"lat":46.5218,"long":6.633,"closestMainCity":{"city":"Lausanne","zipCode":1001,"lat":46.5218,"long":6.633}},{"city":"Lausanne","zipCode":1002,"lat":46.5218,"long":6.633,"closestMainCity":{"city":"Lausanne","zipCode":1001,"lat":46.5218,"long":6.633}},{"city":"Lausanne","zipCode":1003,"lat":46.516,"long":6.6328,"closestMainCity":{"city":"Lausanne","zipCode":1001,"lat":46.5218,"long":6.633}},{"city":"Lausanne","zipCode":1004,"lat":46.516,"long":6.6328,"closestMainCity":{"city":"Lausanne","zipCode":1001,"lat":46.5218,"long":6.633}},{"city":"Lausanne","zipCode":1005,"lat":46.516,"long":6.6328,"closestMainCity":{"city":"Lausanne","zipCode":1001,"lat":46.5218,"long":6.633}},{"city":"Lausanne","zipCode":1006,"lat":46.516,"long":6.6328,"closestMainCity":{"city":"Lausanne","zipCode":1001,"lat":46.5218,"long":6.633}},{"city":"Lausanne","zipCode":1007,"lat":46.516,"long":6.6328,"closestMainCity":{"city":"Lausanne","zipCode":1001,"lat":46.5218,"long":6.633}},{"city":"Jouxtens-Mézery","zipCode":1008,"lat":46.5556,"long":6.6437,"closestMainCity":{"city":"Lausanne","zipCode":1001,"lat":46.5218,"long":6.633}},{"city":"Pully","zipCode":1009,"lat":46.5103,"long":6.6618,"closestMainCity":{"city":"Lausanne","zipCode":1001,"lat":46.5218,"long":6.633}},{"city":"Lausanne","zipCode":1010,"lat":46.516,"long":6.6328,"closestMainCity":{"city":"Lausanne","zipCode":1001,"lat":46.5218,"long":6.633}},{"city":"Lausanne","zipCode":1011,"lat":46.516,"long":6.6328,"closestMainCity":{"city":"Lausanne","zipCode":1001,"lat":46.5218,"long":6.633}},{"city":"Lausanne","zipCode":1012,"lat":46.516,"long":6.6328,"closestMainCity":{"city":"Lausanne","zipCode":1001,"lat":46.5218,"long":6.633}},{"city":"LausanneAdmcant","zipCode":1014,"lat":46.5218,"long":6.633,"closestMainCity":{"city":"Lausanne","zipCode":1001,"lat":46.5218,"long":6.633}},{"city":"Lausanne","zipCode":1015,"lat":46.516,"long":6.6328,"closestMainCity":{"city":"Lausanne","zipCode":1001,"lat":46.5218,"long":6.633}},{"city":"LausanneVeillon","zipCode":1017,"lat":46.5218,"long":6.633,"closestMainCity":{"city":"Lausanne","zipCode":1001,"lat":46.5218,"long":6.633}},{"city":"Lausanne","zipCode":1018,"lat":46.516,"long":6.6328,"closestMainCity":{"city":"Lausanne","zipCode":1001,"lat":46.5218,"long":6.633}},{"city":"Lausanne","zipCode":1019,"lat":46.5218,"long":6.633,"closestMainCity":{"city":"Lausanne","zipCode":1001,"lat":46.5218,"long":6.633}},{"city":"RenensVD","zipCode":1020,"lat":46.5399,"long":6.5881,"closestMainCity":{"city":"Lausanne","zipCode":1001,"lat":46.5218,"long":6.633}},{"city":"Chavannes-près-Renens","zipCode":1022,"lat":46.5301,"long":6.5707,"closestMainCity":{"city":"Lausanne","zipCode":1001,"lat":46.5218,"long":6.633}},{"city":"Crissier","zipCode":1023,"lat":46.5459,"long":6.5757,"closestMainCity":{"city":"Lausanne","zipCode":1001,"lat":46.5218,"long":6.633}},{"city":"EcublensVD","zipCode":1024,"lat":46.529,"long":6.5626,"closestMainCity":{"city":"Morges","zipCode":1110,"lat":46.5113,"long":6.4985}},{"city":"St-SulpiceVD","zipCode":1025,"lat":46.5105,"long":6.559,"closestMainCity":{"city":"Morges","zipCode":1110,"lat":46.5113,"long":6.4985}},{"city":"Denges","zipCode":1026,"lat":46.522,"long":6.5393,"closestMainCity":{"city":"Morges","zipCode":1110,"lat":46.5113,"long":6.4985}},{"city":"Lonay","zipCode":1027,"lat":46.5288,"long":6.5194,"closestMainCity":{"city":"Morges","zipCode":1110,"lat":46.5113,"long":6.4985}},{"city":"Préverenges","zipCode":1028,"lat":46.5185,"long":6.5268,"closestMainCity":{"city":"Morges","zipCode":1110,"lat":46.5113,"long":6.4985}},{"city":"Villars-Ste-Croix","zipCode":1029,"lat":46.5656,"long":6.5633,"closestMainCity":{"city":"Lausanne","zipCode":1001,"lat":46.5218,"long":6.633}},{"city":"Bussigny","zipCode":1030,"lat":46.5511,"long":6.556,"closestMainCity":{"city":"Morges","zipCode":1110,"lat":46.5113,"long":6.4985}},{"city":"MexVD","zipCode":1031,"lat":46.5759,"long":6.5545,"closestMainCity":{"city":"Morges","zipCode":1110,"lat":46.5113,"long":6.4985}},{"city":"Romanel-sur-Lausanne","zipCode":1032,"lat":46.564,"long":6.6054,"closestMainCity":{"city":"Lausanne","zipCode":1001,"lat":46.5218,"long":6.633}},{"city":"Cheseaux-sur-Lausanne","zipCode":1033,"lat":46.5862,"long":6.6059,"closestMainCity":{"city":"Lausanne","zipCode":1001,"lat":46.5218,"long":6.633}},{"city":"Boussens","zipCode":1034,"lat":46.6033,"long":6.586,"closestMainCity":{"city":"Lausanne","zipCode":1001,"lat":46.5218,"long":6.633}},{"city":"Bournens","zipCode":1035,"lat":46.6049,"long":6.5648,"closestMainCity":{"city":"Lausanne","zipCode":1001,"lat":46.5218,"long":6.633}},{"city":"Sullens","zipCode":1036,"lat":46.5956,"long":6.5669,"closestMainCity":{"city":"Lausanne","zipCode":1001,"lat":46.5218,"long":6.633}},{"city":"Etagnières","zipCode":1037,"lat":46.6015,"long":6.6065,"closestMainCity":{"city":"Lausanne","zipCode":1001,"lat":46.5218,"long":6.633}},{"city":"Bercher","zipCode":1038,"lat":46.6914,"long":6.7076,"closestMainCity":{"city":"Yverdon-les-Bains","zipCode":1400,"lat":46.7785,"long":6.6411}},{"city":"CheseauxPolyval","zipCode":1039,"lat":46.5845,"long":6.5955,"closestMainCity":{"city":"Lausanne","zipCode":1001,"lat":46.5218,"long":6.633}},{"city":"Villars-le-Terroir","zipCode":1040,"lat":46.6582,"long":6.6439,"closestMainCity":{"city":"Yverdon-les-Bains","zipCode":1400,"lat":46.7785,"long":6.6411}},{"city":"Naz","zipCode":1041,"lat":46.6588,"long":6.694,"closestMainCity":{"city":"Yverdon-les-Bains","zipCode":1400,"lat":46.7785,"long":6.6411}},{"city":"Bettens","zipCode":1042,"lat":46.6283,"long":6.5734,"closestMainCity":{"city":"Lausanne","zipCode":1001,"lat":46.5218,"long":6.633}},{"city":"Sugnens","zipCode":1043,"lat":46.6551,"long":6.6714,"closestMainCity":{"city":"Yverdon-les-Bains","zipCode":1400,"lat":46.7785,"long":6.6411}},{"city":"Fey","zipCode":1044,"lat":46.6729,"long":6.6801,"closestMainCity":{"city":"Yverdon-les-Bains","zipCode":1400,"lat":46.7785,"long":6.6411}},{"city":"Ogens","zipCode":1045,"lat":46.7084,"long":6.7245,"closestMainCity":{"city":"Yverdon-les-Bains","zipCode":1400,"lat":46.7785,"long":6.6411}},{"city":"Rueyres","zipCode":1046,"lat":46.6934,"long":6.6921,"closestMainCity":{"city":"Yverdon-les-Bains","zipCode":1400,"lat":46.7785,"long":6.6411}},{"city":"Oppens","zipCode":1047,"lat":46.714,"long":6.6917,"closestMainCity":{"city":"Yverdon-les-Bains","zipCode":1400,"lat":46.7785,"long":6.6411}},{"city":"LeMont-sur-Lausanne","zipCode":1052,"lat":46.5582,"long":6.6315,"closestMainCity":{"city":"Lausanne","zipCode":1001,"lat":46.5218,"long":6.633}},{"city":"Bretigny-sur-Morrens","zipCode":1053,"lat":46.5998,"long":6.6431,"closestMainCity":{"city":"Lausanne","zipCode":1001,"lat":46.5218,"long":6.633}},{"city":"MorrensVD","zipCode":1054,"lat":46.5909,"long":6.6223,"closestMainCity":{"city":"Lausanne","zipCode":1001,"lat":46.5218,"long":6.633}},{"city":"Froideville","zipCode":1055,"lat":46.6012,"long":6.6809,"closestMainCity":{"city":"Lausanne","zipCode":1001,"lat":46.5218,"long":6.633}},{"city":"Villars-Tiercelin","zipCode":1058,"lat":46.6251,"long":6.7038,"closestMainCity":{"city":"Lausanne","zipCode":1001,"lat":46.5218,"long":6.633}},{"city":"Peney-le-Jorat","zipCode":1059,"lat":46.6323,"long":6.7288,"closestMainCity":{"city":"Lausanne","zipCode":1001,"lat":46.5218,"long":6.633}},{"city":"Villars-Mendraz","zipCode":1061,"lat":46.6459,"long":6.7296,"closestMainCity":{"city":"Lausanne","zipCode":1001,"lat":46.5218,"long":6.633}},{"city":"Sottens","zipCode":1062,"lat":46.6552,"long":6.742,"closestMainCity":{"city":"Yverdon-les-Bains","zipCode":1400,"lat":46.7785,"long":6.6411}},{"city":"Boulens","zipCode":1063,"lat":46.6789,"long":6.7183,"closestMainCity":{"city":"Yverdon-les-Bains","zipCode":1400,"lat":46.7785,"long":6.6411}},{"city":"Epalinges","zipCode":1066,"lat":46.549,"long":6.6683,"closestMainCity":{"city":"Lausanne","zipCode":1001,"lat":46.5218,"long":6.633}},{"city":"LesMonts-de-Pully","zipCode":1068,"lat":46.5373,"long":6.6876,"closestMainCity":{"city":"Lausanne","zipCode":1001,"lat":46.5218,"long":6.633}},{"city":"Puidoux","zipCode":1070,"lat":46.5009,"long":6.7825,"closestMainCity":{"city":"Lausanne","zipCode":1001,"lat":46.5218,"long":6.633}},{"city":"Rivaz","zipCode":1071,"lat":46.4763,"long":6.7788,"closestMainCity":{"city":"Montreux","zipCode":1820,"lat":46.433,"long":6.9114}},{"city":"Forel(Lavaux)","zipCode":1072,"lat":46.5379,"long":6.7629,"closestMainCity":{"city":"Lausanne","zipCode":1001,"lat":46.5218,"long":6.633}},{"city":"Savigny","zipCode":1073,"lat":46.5384,"long":6.7322,"closestMainCity":{"city":"Lausanne","zipCode":1001,"lat":46.5218,"long":6.633}},{"city":"FerlensVD","zipCode":1076,"lat":46.5881,"long":6.7808,"closestMainCity":{"city":"Lausanne","zipCode":1001,"lat":46.5218,"long":6.633}},{"city":"Servion","zipCode":1077,"lat":46.5731,"long":6.7494,"closestMainCity":{"city":"Lausanne","zipCode":1001,"lat":46.5218,"long":6.633}},{"city":"Essertes","zipCode":1078,"lat":46.5619,"long":6.7864,"closestMainCity":{"city":"Lausanne","zipCode":1001,"lat":46.5218,"long":6.633}},{"city":"LesCullayes","zipCode":1080,"lat":46.5731,"long":6.7494,"closestMainCity":{"city":"Lausanne","zipCode":1001,"lat":46.5218,"long":6.633}},{"city":"Montpreveyres","zipCode":1081,"lat":46.5826,"long":6.7411,"closestMainCity":{"city":"Lausanne","zipCode":1001,"lat":46.5218,"long":6.633}},{"city":"Corcelles-le-Jorat","zipCode":1082,"lat":46.6013,"long":6.7309,"closestMainCity":{"city":"Lausanne","zipCode":1001,"lat":46.5218,"long":6.633}},{"city":"MézièresVD","zipCode":1083,"lat":46.5915,"long":6.7657,"closestMainCity":{"city":"Lausanne","zipCode":1001,"lat":46.5218,"long":6.633}},{"city":"CarrougeVD","zipCode":1084,"lat":46.5377,"long":6.7677,"closestMainCity":{"city":"Lausanne","zipCode":1001,"lat":46.5218,"long":6.633}},{"city":"Vulliens","zipCode":1085,"lat":46.6225,"long":6.7935,"closestMainCity":{"city":"Lausanne","zipCode":1001,"lat":46.5218,"long":6.633}},{"city":"Ropraz","zipCode":1088,"lat":46.6146,"long":6.7535,"closestMainCity":{"city":"Lausanne","zipCode":1001,"lat":46.5218,"long":6.633}},{"city":"LaCroix(Lutry)","zipCode":1090,"lat":46.5179,"long":6.7036,"closestMainCity":{"city":"Lausanne","zipCode":1001,"lat":46.5218,"long":6.633}},{"city":"Aran","zipCode":1091,"lat":46.4993,"long":6.7104,"closestMainCity":{"city":"Lausanne","zipCode":1001,"lat":46.5218,"long":6.633}},{"city":"Belmont-sur-Lausanne","zipCode":1092,"lat":46.5189,"long":6.6764,"closestMainCity":{"city":"Lausanne","zipCode":1001,"lat":46.5218,"long":6.633}},{"city":"LaConversion","zipCode":1093,"lat":46.5128,"long":6.6774,"closestMainCity":{"city":"Lausanne","zipCode":1001,"lat":46.5218,"long":6.633}},{"city":"Paudex","zipCode":1094,"lat":46.5055,"long":6.6682,"closestMainCity":{"city":"Lausanne","zipCode":1001,"lat":46.5218,"long":6.633}},{"city":"Lutry","zipCode":1095,"lat":46.5024,"long":6.6865,"closestMainCity":{"city":"Lausanne","zipCode":1001,"lat":46.5218,"long":6.633}},{"city":"Villette(Lavaux)","zipCode":1096,"lat":46.4957,"long":6.709,"closestMainCity":{"city":"Lausanne","zipCode":1001,"lat":46.5218,"long":6.633}},{"city":"Riex","zipCode":1097,"lat":46.4935,"long":6.7356,"closestMainCity":{"city":"Lausanne","zipCode":1001,"lat":46.5218,"long":6.633}},{"city":"Epesses","zipCode":1098,"lat":46.4913,"long":6.7478,"closestMainCity":{"city":"Lausanne","zipCode":1001,"lat":46.5218,"long":6.633}},{"city":"Morges","zipCode":1110,"lat":46.5113,"long":6.4985,"closestMainCity":{"city":"Morges","zipCode":1110,"lat":46.5113,"long":6.4985}},{"city":"Echichens","zipCode":1112,"lat":46.5303,"long":6.4968,"closestMainCity":{"city":"Morges","zipCode":1110,"lat":46.5113,"long":6.4985}},{"city":"St-Saphorin-sur-Morges","zipCode":1113,"lat":46.5469,"long":6.4885,"closestMainCity":{"city":"Morges","zipCode":1110,"lat":46.5113,"long":6.4985}},{"city":"ColombierVD","zipCode":1114,"lat":46.5571,"long":6.4728,"closestMainCity":{"city":"Morges","zipCode":1110,"lat":46.5113,"long":6.4985}},{"city":"Vullierens","zipCode":1115,"lat":46.574,"long":6.4819,"closestMainCity":{"city":"Morges","zipCode":1110,"lat":46.5113,"long":6.4985}},{"city":"CottensVD","zipCode":1116,"lat":46.5725,"long":6.4564,"closestMainCity":{"city":"Morges","zipCode":1110,"lat":46.5113,"long":6.4985}},{"city":"Grancy","zipCode":1117,"lat":46.5921,"long":6.4639,"closestMainCity":{"city":"Morges","zipCode":1110,"lat":46.5113,"long":6.4985}},{"city":"Bremblens","zipCode":1121,"lat":46.5483,"long":6.5194,"closestMainCity":{"city":"Morges","zipCode":1110,"lat":46.5113,"long":6.4985}},{"city":"Romanel-sur-Morges","zipCode":1122,"lat":46.5561,"long":6.5104,"closestMainCity":{"city":"Morges","zipCode":1110,"lat":46.5113,"long":6.4985}},{"city":"Aclens","zipCode":1123,"lat":46.5663,"long":6.5115,"closestMainCity":{"city":"Morges","zipCode":1110,"lat":46.5113,"long":6.4985}},{"city":"Gollion","zipCode":1124,"lat":46.5852,"long":6.5097,"closestMainCity":{"city":"Morges","zipCode":1110,"lat":46.5113,"long":6.4985}},{"city":"Monnaz","zipCode":1125,"lat":46.5325,"long":6.4806,"closestMainCity":{"city":"Morges","zipCode":1110,"lat":46.5113,"long":6.4985}},{"city":"Vaux-sur-Morges","zipCode":1126,"lat":46.5385,"long":6.4639,"closestMainCity":{"city":"Morges","zipCode":1110,"lat":46.5113,"long":6.4985}},{"city":"Clarmont","zipCode":1127,"lat":46.5464,"long":6.4495,"closestMainCity":{"city":"Morges","zipCode":1110,"lat":46.5113,"long":6.4985}},{"city":"Reverolle","zipCode":1128,"lat":46.5428,"long":6.4405,"closestMainCity":{"city":"Morges","zipCode":1110,"lat":46.5113,"long":6.4985}},{"city":"Tolochenaz","zipCode":1131,"lat":46.505,"long":6.4728,"closestMainCity":{"city":"Morges","zipCode":1110,"lat":46.5113,"long":6.4985}},{"city":"LullyVD","zipCode":1132,"lat":46.5051,"long":6.4648,"closestMainCity":{"city":"Morges","zipCode":1110,"lat":46.5113,"long":6.4985}},{"city":"Chigny","zipCode":1134,"lat":46.5197,"long":6.4766,"closestMainCity":{"city":"Morges","zipCode":1110,"lat":46.5113,"long":6.4985}},{"city":"Denens","zipCode":1135,"lat":46.5177,"long":6.4529,"closestMainCity":{"city":"Morges","zipCode":1110,"lat":46.5113,"long":6.4985}},{"city":"Bussy-Chardonney","zipCode":1136,"lat":46.5305,"long":6.4425,"closestMainCity":{"city":"Morges","zipCode":1110,"lat":46.5113,"long":6.4985}},{"city":"Sévery","zipCode":1141,"lat":46.5735,"long":6.4417,"closestMainCity":{"city":"Morges","zipCode":1110,"lat":46.5113,"long":6.4985}},{"city":"Pampigny","zipCode":1142,"lat":46.5809,"long":6.4294,"closestMainCity":{"city":"Morges","zipCode":1110,"lat":46.5113,"long":6.4985}},{"city":"Apples","zipCode":1143,"lat":46.5524,"long":6.4289,"closestMainCity":{"city":"Morges","zipCode":1110,"lat":46.5113,"long":6.4985}},{"city":"Ballens","zipCode":1144,"lat":46.5548,"long":6.3731,"closestMainCity":{"city":"Morges","zipCode":1110,"lat":46.5113,"long":6.4985}},{"city":"Bière","zipCode":1145,"lat":46.5376,"long":6.3336,"closestMainCity":{"city":"Morges","zipCode":1110,"lat":46.5113,"long":6.4985}},{"city":"MollensVD","zipCode":1146,"lat":46.5776,"long":6.3632,"closestMainCity":{"city":"Morges","zipCode":1110,"lat":46.5113,"long":6.4985}},{"city":"Montricher","zipCode":1147,"lat":46.5996,"long":6.3767,"closestMainCity":{"city":"Morges","zipCode":1110,"lat":46.5113,"long":6.4985}},{"city":"LaPraz","zipCode":1148,"lat":46.6675,"long":6.4271,"closestMainCity":{"city":"Morges","zipCode":1110,"lat":46.5113,"long":6.4985}},{"city":"Berolle","zipCode":1149,"lat":46.558,"long":6.3355,"closestMainCity":{"city":"Morges","zipCode":1110,"lat":46.5113,"long":6.4985}},{"city":"St-Prex","zipCode":1162,"lat":46.4796,"long":6.4599,"closestMainCity":{"city":"Morges","zipCode":1110,"lat":46.5113,"long":6.4985}},{"city":"Etoy","zipCode":1163,"lat":46.4859,"long":6.4182,"closestMainCity":{"city":"Morges","zipCode":1110,"lat":46.5113,"long":6.4985}},{"city":"Buchillon","zipCode":1164,"lat":46.4698,"long":6.4178,"closestMainCity":{"city":"Morges","zipCode":1110,"lat":46.5113,"long":6.4985}},{"city":"Allaman","zipCode":1165,"lat":46.4701,"long":6.3964,"closestMainCity":{"city":"Morges","zipCode":1110,"lat":46.5113,"long":6.4985}},{"city":"Perroy","zipCode":1166,"lat":46.4669,"long":6.3535,"closestMainCity":{"city":"Morges","zipCode":1110,"lat":46.5113,"long":6.4985}},{"city":"Lussy-sur-Morges","zipCode":1167,"lat":46.5041,"long":6.45,"closestMainCity":{"city":"Morges","zipCode":1110,"lat":46.5113,"long":6.4985}},{"city":"Villars-sous-Yens","zipCode":1168,"lat":46.5092,"long":6.4293,"closestMainCity":{"city":"Morges","zipCode":1110,"lat":46.5113,"long":6.4985}},{"city":"Yens","zipCode":1169,"lat":46.519,"long":6.4185,"closestMainCity":{"city":"Morges","zipCode":1110,"lat":46.5113,"long":6.4985}},{"city":"Aubonne","zipCode":1170,"lat":46.4951,"long":6.3916,"closestMainCity":{"city":"Morges","zipCode":1110,"lat":46.5113,"long":6.4985}},{"city":"Bougy-Villars","zipCode":1172,"lat":46.4819,"long":6.3536,"closestMainCity":{"city":"Morges","zipCode":1110,"lat":46.5113,"long":6.4985}},{"city":"Féchy","zipCode":1173,"lat":46.4788,"long":6.3728,"closestMainCity":{"city":"Morges","zipCode":1110,"lat":46.5113,"long":6.4985}},{"city":"Montherod","zipCode":1174,"lat":46.5017,"long":6.3615,"closestMainCity":{"city":"Morges","zipCode":1110,"lat":46.5113,"long":6.4985}},{"city":"Lavigny","zipCode":1175,"lat":46.5012,"long":6.4109,"closestMainCity":{"city":"Morges","zipCode":1110,"lat":46.5113,"long":6.4985}},{"city":"St-Livres","zipCode":1176,"lat":46.5079,"long":6.3875,"closestMainCity":{"city":"Morges","zipCode":1110,"lat":46.5113,"long":6.4985}},{"city":"Tartegnin","zipCode":1180,"lat":46.4662,"long":6.3125,"closestMainCity":{"city":"Morges","zipCode":1110,"lat":46.5113,"long":6.4985}},{"city":"Gilly","zipCode":1182,"lat":46.4578,"long":6.2965,"closestMainCity":{"city":"Morges","zipCode":1110,"lat":46.5113,"long":6.4985}},{"city":"Bursins","zipCode":1183,"lat":46.4528,"long":6.2914,"closestMainCity":{"city":"Morges","zipCode":1110,"lat":46.5113,"long":6.4985}},{"city":"Vinzel","zipCode":1184,"lat":46.4483,"long":6.2782,"closestMainCity":{"city":"Morges","zipCode":1110,"lat":46.5113,"long":6.4985}},{"city":"Mont-sur-Rolle","zipCode":1185,"lat":46.4702,"long":6.3352,"closestMainCity":{"city":"Morges","zipCode":1110,"lat":46.5113,"long":6.4985}},{"city":"Essertines-sur-Rolle","zipCode":1186,"lat":46.4931,"long":6.3177,"closestMainCity":{"city":"Morges","zipCode":1110,"lat":46.5113,"long":6.4985}},{"city":"St-Oyens","zipCode":1187,"lat":46.4994,"long":6.3033,"closestMainCity":{"city":"Morges","zipCode":1110,"lat":46.5113,"long":6.4985}},{"city":"Gimel","zipCode":1188,"lat":46.5095,"long":6.3074,"closestMainCity":{"city":"Morges","zipCode":1110,"lat":46.5113,"long":6.4985}},{"city":"Saubraz","zipCode":1189,"lat":46.5161,"long":6.3302,"closestMainCity":{"city":"Morges","zipCode":1110,"lat":46.5113,"long":6.4985}},{"city":"Dully","zipCode":1195,"lat":46.4314,"long":6.2946,"closestMainCity":{"city":"Morges","zipCode":1110,"lat":46.5113,"long":6.4985}},{"city":"Gland","zipCode":1196,"lat":46.4208,"long":6.2701,"closestMainCity":{"city":"Morges","zipCode":1110,"lat":46.5113,"long":6.4985}},{"city":"Prangins","zipCode":1197,"lat":46.3952,"long":6.2496,"closestMainCity":{"city":"Genève","zipCode":1200,"lat":46.2058,"long":6.1416}},{"city":"Genève","zipCode":1200,"lat":46.2058,"long":6.1416,"closestMainCity":{"city":"Genève","zipCode":1200,"lat":46.2058,"long":6.1416}},{"city":"Genève","zipCode":1201,"lat":46.2022,"long":6.1457,"closestMainCity":{"city":"Genève","zipCode":1200,"lat":46.2058,"long":6.1416}},{"city":"Genève","zipCode":1202,"lat":46.2022,"long":6.1457,"closestMainCity":{"city":"Genève","zipCode":1200,"lat":46.2058,"long":6.1416}},{"city":"Genève","zipCode":1203,"lat":46.2022,"long":6.1457,"closestMainCity":{"city":"Genève","zipCode":1200,"lat":46.2058,"long":6.1416}},{"city":"Genève","zipCode":1204,"lat":46.2022,"long":6.1457,"closestMainCity":{"city":"Genève","zipCode":1200,"lat":46.2058,"long":6.1416}},{"city":"Genève","zipCode":1205,"lat":46.2022,"long":6.1457,"closestMainCity":{"city":"Genève","zipCode":1200,"lat":46.2058,"long":6.1416}},{"city":"Genève","zipCode":1206,"lat":46.2022,"long":6.1457,"closestMainCity":{"city":"Genève","zipCode":1200,"lat":46.2058,"long":6.1416}},{"city":"Genève","zipCode":1207,"lat":46.2022,"long":6.1457,"closestMainCity":{"city":"Genève","zipCode":1200,"lat":46.2058,"long":6.1416}},{"city":"Genève","zipCode":1208,"lat":46.2022,"long":6.1457,"closestMainCity":{"city":"Genève","zipCode":1200,"lat":46.2058,"long":6.1416}},{"city":"Genève","zipCode":1209,"lat":46.2022,"long":6.1457,"closestMainCity":{"city":"Genève","zipCode":1200,"lat":46.2058,"long":6.1416}},{"city":"Genève","zipCode":1211,"lat":46.2058,"long":6.1416,"closestMainCity":{"city":"Genève","zipCode":1200,"lat":46.2058,"long":6.1416}},{"city":"Grand-Lancy","zipCode":1212,"lat":46.1788,"long":6.1229,"closestMainCity":{"city":"Genève","zipCode":1200,"lat":46.2058,"long":6.1416}},{"city":"Onex","zipCode":1213,"lat":46.184,"long":6.1024,"closestMainCity":{"city":"Genève","zipCode":1200,"lat":46.2058,"long":6.1416}},{"city":"Vernier","zipCode":1214,"lat":46.217,"long":6.085,"closestMainCity":{"city":"Genève","zipCode":1200,"lat":46.2058,"long":6.1416}},{"city":"Genève","zipCode":1215,"lat":46.2358,"long":6.1192,"closestMainCity":{"city":"Genève","zipCode":1200,"lat":46.2058,"long":6.1416}},{"city":"Cointrin","zipCode":1216,"lat":46.2267,"long":6.1055,"closestMainCity":{"city":"Genève","zipCode":1200,"lat":46.2058,"long":6.1416}},{"city":"Meyrin","zipCode":1217,"lat":46.2342,"long":6.0802,"closestMainCity":{"city":"Genève","zipCode":1200,"lat":46.2058,"long":6.1416}},{"city":"LeGrand-Saconnex","zipCode":1218,"lat":46.2319,"long":6.1209,"closestMainCity":{"city":"Genève","zipCode":1200,"lat":46.2058,"long":6.1416}},{"city":"Châtelaine","zipCode":1219,"lat":46.2114,"long":6.1089,"closestMainCity":{"city":"Genève","zipCode":1200,"lat":46.2058,"long":6.1416}},{"city":"LesAvanchets","zipCode":1220,"lat":46.2217,"long":6.1081,"closestMainCity":{"city":"Genève","zipCode":1200,"lat":46.2058,"long":6.1416}},{"city":"Vésenaz","zipCode":1222,"lat":46.2403,"long":6.1975,"closestMainCity":{"city":"Genève","zipCode":1200,"lat":46.2058,"long":6.1416}},{"city":"Cologny","zipCode":1223,"lat":46.2167,"long":6.1804,"closestMainCity":{"city":"Genève","zipCode":1200,"lat":46.2058,"long":6.1416}},{"city":"Chêne-Bougeries","zipCode":1224,"lat":46.1984,"long":6.1864,"closestMainCity":{"city":"Genève","zipCode":1200,"lat":46.2058,"long":6.1416}},{"city":"Chêne-Bourg","zipCode":1225,"lat":46.1953,"long":6.1941,"closestMainCity":{"city":"Genève","zipCode":1200,"lat":46.2058,"long":6.1416}},{"city":"Thônex","zipCode":1226,"lat":46.1881,"long":6.199,"closestMainCity":{"city":"Genève","zipCode":1200,"lat":46.2058,"long":6.1416}},{"city":"CarougeGE","zipCode":1227,"lat":46.1917,"long":6.1361,"closestMainCity":{"city":"Genève","zipCode":1200,"lat":46.2058,"long":6.1416}},{"city":"Plan-les-Ouates","zipCode":1228,"lat":46.1679,"long":6.1166,"closestMainCity":{"city":"Genève","zipCode":1200,"lat":46.2058,"long":6.1416}},{"city":"Conches","zipCode":1231,"lat":46.185,"long":6.1739,"closestMainCity":{"city":"Genève","zipCode":1200,"lat":46.2058,"long":6.1416}},{"city":"Confignon","zipCode":1232,"lat":46.1734,"long":6.0844,"closestMainCity":{"city":"Genève","zipCode":1200,"lat":46.2058,"long":6.1416}},{"city":"Bernex","zipCode":1233,"lat":46.1765,"long":6.0754,"closestMainCity":{"city":"Genève","zipCode":1200,"lat":46.2058,"long":6.1416}},{"city":"Vessy","zipCode":1234,"lat":46.1831,"long":6.1668,"closestMainCity":{"city":"Genève","zipCode":1200,"lat":46.2058,"long":6.1416}},{"city":"Cartigny","zipCode":1236,"lat":46.1741,"long":6.0198,"closestMainCity":{"city":"Genève","zipCode":1200,"lat":46.2058,"long":6.1416}},{"city":"Avully","zipCode":1237,"lat":46.1701,"long":6.0046,"closestMainCity":{"city":"Genève","zipCode":1200,"lat":46.2058,"long":6.1416}},{"city":"Collex","zipCode":1239,"lat":46.2715,"long":6.1233,"closestMainCity":{"city":"Genève","zipCode":1200,"lat":46.2058,"long":6.1416}},{"city":"Genève","zipCode":1240,"lat":46.2058,"long":6.1416,"closestMainCity":{"city":"Genève","zipCode":1200,"lat":46.2058,"long":6.1416}},{"city":"Puplinge","zipCode":1241,"lat":46.2104,"long":6.2311,"closestMainCity":{"city":"Genève","zipCode":1200,"lat":46.2058,"long":6.1416}},{"city":"Satigny","zipCode":1242,"lat":46.2146,"long":6.0355,"closestMainCity":{"city":"Genève","zipCode":1200,"lat":46.2058,"long":6.1416}},{"city":"Presinge","zipCode":1243,"lat":46.2198,"long":6.2552,"closestMainCity":{"city":"Genève","zipCode":1200,"lat":46.2058,"long":6.1416}},{"city":"Choulex","zipCode":1244,"lat":46.2263,"long":6.2238,"closestMainCity":{"city":"Genève","zipCode":1200,"lat":46.2058,"long":6.1416}},{"city":"Collonge-Bellerive","zipCode":1245,"lat":46.2504,"long":6.1959,"closestMainCity":{"city":"Genève","zipCode":1200,"lat":46.2058,"long":6.1416}},{"city":"CorsierGE","zipCode":1246,"lat":46.263,"long":6.2246,"closestMainCity":{"city":"Genève","zipCode":1200,"lat":46.2058,"long":6.1416}},{"city":"Anières","zipCode":1247,"lat":46.2767,"long":6.222,"closestMainCity":{"city":"Genève","zipCode":1200,"lat":46.2058,"long":6.1416}},{"city":"Hermance","zipCode":1248,"lat":46.3014,"long":6.2433,"closestMainCity":{"city":"Genève","zipCode":1200,"lat":46.2058,"long":6.1416}},{"city":"Gy","zipCode":1251,"lat":46.2532,"long":6.2591,"closestMainCity":{"city":"Genève","zipCode":1200,"lat":46.2058,"long":6.1416}},{"city":"Meinier","zipCode":1252,"lat":46.2471,"long":6.2342,"closestMainCity":{"city":"Genève","zipCode":1200,"lat":46.2058,"long":6.1416}},{"city":"Vandoeuvres","zipCode":1253,"lat":46.2218,"long":6.2029,"closestMainCity":{"city":"Genève","zipCode":1200,"lat":46.2058,"long":6.1416}},{"city":"Jussy","zipCode":1254,"lat":46.2359,"long":6.267,"closestMainCity":{"city":"Genève","zipCode":1200,"lat":46.2058,"long":6.1416}},{"city":"Veyrier","zipCode":1255,"lat":46.167,"long":6.1844,"closestMainCity":{"city":"Genève","zipCode":1200,"lat":46.2058,"long":6.1416}},{"city":"Troinex","zipCode":1256,"lat":46.1631,"long":6.1475,"closestMainCity":{"city":"Genève","zipCode":1200,"lat":46.2058,"long":6.1416}},{"city":"LaCroix-de-Rozon","zipCode":1257,"lat":46.1454,"long":6.1364,"closestMainCity":{"city":"Genève","zipCode":1200,"lat":46.2058,"long":6.1416}},{"city":"Perly","zipCode":1258,"lat":46.157,"long":6.0923,"closestMainCity":{"city":"Genève","zipCode":1200,"lat":46.2058,"long":6.1416}},{"city":"Nyon","zipCode":1260,"lat":46.3832,"long":6.2395,"closestMainCity":{"city":"Genève","zipCode":1200,"lat":46.2058,"long":6.1416}},{"city":"Longirod","zipCode":1261,"lat":46.495,"long":6.2584,"closestMainCity":{"city":"Morges","zipCode":1110,"lat":46.5113,"long":6.4985}},{"city":"Eysins","zipCode":1262,"lat":46.3817,"long":6.207,"closestMainCity":{"city":"Genève","zipCode":1200,"lat":46.2058,"long":6.1416}},{"city":"Crassier","zipCode":1263,"lat":46.3746,"long":6.1637,"closestMainCity":{"city":"Genève","zipCode":1200,"lat":46.2058,"long":6.1416}},{"city":"St-Cergue","zipCode":1264,"lat":46.4459,"long":6.1574,"closestMainCity":{"city":"Genève","zipCode":1200,"lat":46.2058,"long":6.1416}},{"city":"LaCure","zipCode":1265,"lat":46.4647,"long":6.0742,"closestMainCity":{"city":"Genève","zipCode":1200,"lat":46.2058,"long":6.1416}},{"city":"Duillier","zipCode":1266,"lat":46.4092,"long":6.2298,"closestMainCity":{"city":"Morges","zipCode":1110,"lat":46.5113,"long":6.4985}},{"city":"Vich","zipCode":1267,"lat":46.4292,"long":6.2501,"closestMainCity":{"city":"Morges","zipCode":1110,"lat":46.5113,"long":6.4985}},{"city":"Burtigny","zipCode":1268,"lat":46.4675,"long":6.2571,"closestMainCity":{"city":"Morges","zipCode":1110,"lat":46.5113,"long":6.4985}},{"city":"Bassins","zipCode":1269,"lat":46.4627,"long":6.2362,"closestMainCity":{"city":"Morges","zipCode":1110,"lat":46.5113,"long":6.4985}},{"city":"Trélex","zipCode":1270,"lat":46.4154,"long":6.2081,"closestMainCity":{"city":"Genève","zipCode":1200,"lat":46.2058,"long":6.1416}},{"city":"Givrins","zipCode":1271,"lat":46.4297,"long":6.2021,"closestMainCity":{"city":"Morges","zipCode":1110,"lat":46.5113,"long":6.4985}},{"city":"Genolier","zipCode":1272,"lat":46.4354,"long":6.2181,"closestMainCity":{"city":"Morges","zipCode":1110,"lat":46.5113,"long":6.4985}},{"city":"Arzier-LeMuids","zipCode":1273,"lat":46.4596,"long":6.2081,"closestMainCity":{"city":"Morges","zipCode":1110,"lat":46.5113,"long":6.4985}},{"city":"Signy","zipCode":1274,"lat":46.3917,"long":6.2029,"closestMainCity":{"city":"Genève","zipCode":1200,"lat":46.2058,"long":6.1416}},{"city":"Chéserex","zipCode":1275,"lat":46.3993,"long":6.174,"closestMainCity":{"city":"Genève","zipCode":1200,"lat":46.2058,"long":6.1416}},{"city":"Gingins","zipCode":1276,"lat":46.4091,"long":6.1781,"closestMainCity":{"city":"Genève","zipCode":1200,"lat":46.2058,"long":6.1416}},{"city":"Arnex-sur-Nyon","zipCode":1277,"lat":46.3729,"long":6.1898,"closestMainCity":{"city":"Genève","zipCode":1200,"lat":46.2058,"long":6.1416}},{"city":"LaRippe","zipCode":1278,"lat":46.381,"long":6.1505,"closestMainCity":{"city":"Genève","zipCode":1200,"lat":46.2058,"long":6.1416}},{"city":"Bogis-Bossey","zipCode":1279,"lat":46.3537,"long":6.166,"closestMainCity":{"city":"Genève","zipCode":1200,"lat":46.2058,"long":6.1416}},{"city":"Russin","zipCode":1281,"lat":46.187,"long":6.0138,"closestMainCity":{"city":"Genève","zipCode":1200,"lat":46.2058,"long":6.1416}},{"city":"Dardagny","zipCode":1283,"lat":46.1956,"long":5.995,"closestMainCity":{"city":"Genève","zipCode":1200,"lat":46.2058,"long":6.1416}},{"city":"Chancy","zipCode":1284,"lat":46.15,"long":5.9715,"closestMainCity":{"city":"Genève","zipCode":1200,"lat":46.2058,"long":6.1416}},{"city":"Athenaz(Avusy)","zipCode":1285,"lat":46.1518,"long":6.0021,"closestMainCity":{"city":"Genève","zipCode":1200,"lat":46.2058,"long":6.1416}},{"city":"Soral","zipCode":1286,"lat":46.1437,"long":6.0428,"closestMainCity":{"city":"Genève","zipCode":1200,"lat":46.2058,"long":6.1416}},{"city":"Laconnex","zipCode":1287,"lat":46.157,"long":6.0313,"closestMainCity":{"city":"Genève","zipCode":1200,"lat":46.2058,"long":6.1416}},{"city":"Aire-la-Ville","zipCode":1288,"lat":46.1906,"long":6.0429,"closestMainCity":{"city":"Genève","zipCode":1200,"lat":46.2058,"long":6.1416}},{"city":"Versoix","zipCode":1290,"lat":46.2838,"long":6.1621,"closestMainCity":{"city":"Genève","zipCode":1200,"lat":46.2058,"long":6.1416}},{"city":"Commugny","zipCode":1291,"lat":46.321,"long":6.1712,"closestMainCity":{"city":"Genève","zipCode":1200,"lat":46.2058,"long":6.1416}},{"city":"Chambésy","zipCode":1292,"lat":46.2441,"long":6.1444,"closestMainCity":{"city":"Genève","zipCode":1200,"lat":46.2058,"long":6.1416}},{"city":"Bellevue","zipCode":1293,"lat":46.2574,"long":6.1547,"closestMainCity":{"city":"Genève","zipCode":1200,"lat":46.2058,"long":6.1416}},{"city":"Genthod","zipCode":1294,"lat":46.2672,"long":6.1556,"closestMainCity":{"city":"Genève","zipCode":1200,"lat":46.2058,"long":6.1416}},{"city":"Mies","zipCode":1295,"lat":46.3035,"long":6.1633,"closestMainCity":{"city":"Genève","zipCode":1200,"lat":46.2058,"long":6.1416}},{"city":"Coppet","zipCode":1296,"lat":46.3168,"long":6.1911,"closestMainCity":{"city":"Genève","zipCode":1200,"lat":46.2058,"long":6.1416}},{"city":"Founex","zipCode":1297,"lat":46.3328,"long":6.1924,"closestMainCity":{"city":"Genève","zipCode":1200,"lat":46.2058,"long":6.1416}},{"city":"Céligny","zipCode":1298,"lat":46.3507,"long":6.195,"closestMainCity":{"city":"Genève","zipCode":1200,"lat":46.2058,"long":6.1416}},{"city":"Crans-près-Céligny","zipCode":1299,"lat":46.3591,"long":6.2058,"closestMainCity":{"city":"Genève","zipCode":1200,"lat":46.2058,"long":6.1416}},{"city":"Vufflens-la-Ville","zipCode":1302,"lat":46.5752,"long":6.5372,"closestMainCity":{"city":"Morges","zipCode":1110,"lat":46.5113,"long":6.4985}},{"city":"Penthaz","zipCode":1303,"lat":46.5987,"long":6.5413,"closestMainCity":{"city":"Morges","zipCode":1110,"lat":46.5113,"long":6.4985}},{"city":"Cossonay-Ville","zipCode":1304,"lat":46.6144,"long":6.5063,"closestMainCity":{"city":"Morges","zipCode":1110,"lat":46.5113,"long":6.4985}},{"city":"Penthalaz","zipCode":1305,"lat":46.6108,"long":6.5252,"closestMainCity":{"city":"Morges","zipCode":1110,"lat":46.5113,"long":6.4985}},{"city":"Daillens","zipCode":1306,"lat":46.6211,"long":6.5487,"closestMainCity":{"city":"Lausanne","zipCode":1001,"lat":46.5218,"long":6.633}},{"city":"Lussery-Villars","zipCode":1307,"lat":46.6328,"long":6.5256,"closestMainCity":{"city":"Morges","zipCode":1110,"lat":46.5113,"long":6.4985}},{"city":"LaChaux(Cossonay)","zipCode":1308,"lat":46.6171,"long":6.4722,"closestMainCity":{"city":"Morges","zipCode":1110,"lat":46.5113,"long":6.4985}},{"city":"Eclépens","zipCode":1312,"lat":46.6482,"long":6.5358,"closestMainCity":{"city":"Morges","zipCode":1110,"lat":46.5113,"long":6.4985}},{"city":"Ferreyres","zipCode":1313,"lat":46.658,"long":6.4852,"closestMainCity":{"city":"Morges","zipCode":1110,"lat":46.5113,"long":6.4985}},{"city":"LaSarraz","zipCode":1315,"lat":46.6586,"long":6.5108,"closestMainCity":{"city":"Morges","zipCode":1110,"lat":46.5113,"long":6.4985}},{"city":"Chevilly","zipCode":1316,"lat":46.6427,"long":6.4766,"closestMainCity":{"city":"Morges","zipCode":1110,"lat":46.5113,"long":6.4985}},{"city":"Orny","zipCode":1317,"lat":46.6676,"long":6.5264,"closestMainCity":{"city":"Yverdon-les-Bains","zipCode":1400,"lat":46.7785,"long":6.6411}},{"city":"Pompaples","zipCode":1318,"lat":46.667,"long":6.5097,"closestMainCity":{"city":"Yverdon-les-Bains","zipCode":1400,"lat":46.7785,"long":6.6411}},{"city":"Arnex-sur-Orbe","zipCode":1321,"lat":46.69,"long":6.5169,"closestMainCity":{"city":"Yverdon-les-Bains","zipCode":1400,"lat":46.7785,"long":6.6411}},{"city":"Croy","zipCode":1322,"lat":46.6938,"long":6.4757,"closestMainCity":{"city":"Yverdon-les-Bains","zipCode":1400,"lat":46.7785,"long":6.6411}},{"city":"Romainmôtier","zipCode":1323,"lat":46.6939,"long":6.4609,"closestMainCity":{"city":"Yverdon-les-Bains","zipCode":1400,"lat":46.7785,"long":6.6411}},{"city":"Premier","zipCode":1324,"lat":46.7057,"long":6.4499,"closestMainCity":{"city":"Yverdon-les-Bains","zipCode":1400,"lat":46.7785,"long":6.6411}},{"city":"Vaulion","zipCode":1325,"lat":46.6891,"long":6.3894,"closestMainCity":{"city":"Morges","zipCode":1110,"lat":46.5113,"long":6.4985}},{"city":"Juriens","zipCode":1326,"lat":46.6885,"long":6.4457,"closestMainCity":{"city":"Yverdon-les-Bains","zipCode":1400,"lat":46.7785,"long":6.6411}},{"city":"Bretonnières","zipCode":1329,"lat":46.7124,"long":6.4696,"closestMainCity":{"city":"Yverdon-les-Bains","zipCode":1400,"lat":46.7785,"long":6.6411}},{"city":"Vallorbe","zipCode":1337,"lat":46.7126,"long":6.3789,"closestMainCity":{"city":"Yverdon-les-Bains","zipCode":1400,"lat":46.7785,"long":6.6411}},{"city":"Ballaigues","zipCode":1338,"lat":46.7298,"long":6.4136,"closestMainCity":{"city":"Yverdon-les-Bains","zipCode":1400,"lat":46.7785,"long":6.6411}},{"city":"Orient","zipCode":1341,"lat":46.6015,"long":6.2394,"closestMainCity":{"city":"Morges","zipCode":1110,"lat":46.5113,"long":6.4985}},{"city":"LePont","zipCode":1342,"lat":46.6658,"long":6.3309,"closestMainCity":{"city":"Morges","zipCode":1110,"lat":46.5113,"long":6.4985}},{"city":"LesCharbonnières","zipCode":1343,"lat":46.6667,"long":6.3156,"closestMainCity":{"city":"Morges","zipCode":1110,"lat":46.5113,"long":6.4985}},{"city":"L'Abbaye","zipCode":1344,"lat":46.6497,"long":6.3191,"closestMainCity":{"city":"Morges","zipCode":1110,"lat":46.5113,"long":6.4985}},{"city":"LeSéchey","zipCode":1345,"lat":46.6614,"long":6.3009,"closestMainCity":{"city":"Morges","zipCode":1110,"lat":46.5113,"long":6.4985}},{"city":"LesBioux","zipCode":1346,"lat":46.6207,"long":6.2699,"closestMainCity":{"city":"Morges","zipCode":1110,"lat":46.5113,"long":6.4985}},{"city":"LeSolliat","zipCode":1347,"lat":46.6211,"long":6.2355,"closestMainCity":{"city":"Morges","zipCode":1110,"lat":46.5113,"long":6.4985}},{"city":"LeBrassus","zipCode":1348,"lat":46.5841,"long":6.2123,"closestMainCity":{"city":"Morges","zipCode":1110,"lat":46.5113,"long":6.4985}},{"city":"Orbe","zipCode":1350,"lat":46.725,"long":6.5307,"closestMainCity":{"city":"Yverdon-les-Bains","zipCode":1400,"lat":46.7785,"long":6.6411}},{"city":"Agiez","zipCode":1352,"lat":46.721,"long":6.5075,"closestMainCity":{"city":"Yverdon-les-Bains","zipCode":1400,"lat":46.7785,"long":6.6411}},{"city":"Bofflens","zipCode":1353,"lat":46.7031,"long":6.4948,"closestMainCity":{"city":"Yverdon-les-Bains","zipCode":1400,"lat":46.7785,"long":6.6411}},{"city":"Montcherand","zipCode":1354,"lat":46.7336,"long":6.5082,"closestMainCity":{"city":"Yverdon-les-Bains","zipCode":1400,"lat":46.7785,"long":6.6411}},{"city":"L'Abergement","zipCode":1355,"lat":46.7542,"long":6.485,"closestMainCity":{"city":"Yverdon-les-Bains","zipCode":1400,"lat":46.7785,"long":6.6411}},{"city":"LesClées","zipCode":1356,"lat":46.7379,"long":6.4808,"closestMainCity":{"city":"Yverdon-les-Bains","zipCode":1400,"lat":46.7785,"long":6.6411}},{"city":"Lignerolle","zipCode":1357,"lat":46.7408,"long":6.4587,"closestMainCity":{"city":"Yverdon-les-Bains","zipCode":1400,"lat":46.7785,"long":6.6411}},{"city":"Valeyres-sous-Rances","zipCode":1358,"lat":46.753,"long":6.5262,"closestMainCity":{"city":"Yverdon-les-Bains","zipCode":1400,"lat":46.7785,"long":6.6411}},{"city":"Bavois","zipCode":1372,"lat":46.684,"long":6.5671,"closestMainCity":{"city":"Yverdon-les-Bains","zipCode":1400,"lat":46.7785,"long":6.6411}},{"city":"Chavornay","zipCode":1373,"lat":46.7024,"long":6.5694,"closestMainCity":{"city":"Yverdon-les-Bains","zipCode":1400,"lat":46.7785,"long":6.6411}},{"city":"Corcelles-sur-Chavornay","zipCode":1374,"lat":46.7065,"long":6.569,"closestMainCity":{"city":"Yverdon-les-Bains","zipCode":1400,"lat":46.7785,"long":6.6411}},{"city":"Penthéréaz","zipCode":1375,"lat":46.6817,"long":6.6039,"closestMainCity":{"city":"Yverdon-les-Bains","zipCode":1400,"lat":46.7785,"long":6.6411}},{"city":"Eclagnens","zipCode":1376,"lat":46.6513,"long":6.5919,"closestMainCity":{"city":"Yverdon-les-Bains","zipCode":1400,"lat":46.7785,"long":6.6411}},{"city":"Oulens-sous-Echallens","zipCode":1377,"lat":46.6438,"long":6.577,"closestMainCity":{"city":"Lausanne","zipCode":1001,"lat":46.5218,"long":6.633}},{"city":"Yverdon-les-Bains","zipCode":1400,"lat":46.7785,"long":6.6411,"closestMainCity":{"city":"Yverdon-les-Bains","zipCode":1400,"lat":46.7785,"long":6.6411}},{"city":"Yverdon-les-Bains","zipCode":1401,"lat":46.7743,"long":6.6371,"closestMainCity":{"city":"Yverdon-les-Bains","zipCode":1400,"lat":46.7785,"long":6.6411}},{"city":"Cuarny","zipCode":1404,"lat":46.7699,"long":6.6921,"closestMainCity":{"city":"Yverdon-les-Bains","zipCode":1400,"lat":46.7785,"long":6.6411}},{"city":"Pomy","zipCode":1405,"lat":46.7586,"long":6.6691,"closestMainCity":{"city":"Yverdon-les-Bains","zipCode":1400,"lat":46.7785,"long":6.6411}},{"city":"Cronay","zipCode":1406,"lat":46.7566,"long":6.6977,"closestMainCity":{"city":"Yverdon-les-Bains","zipCode":1400,"lat":46.7785,"long":6.6411}},{"city":"Donneloye","zipCode":1407,"lat":46.7455,"long":6.7164,"closestMainCity":{"city":"Yverdon-les-Bains","zipCode":1400,"lat":46.7785,"long":6.6411}},{"city":"Prahins","zipCode":1408,"lat":46.7348,"long":6.7386,"closestMainCity":{"city":"Yverdon-les-Bains","zipCode":1400,"lat":46.7785,"long":6.6411}},{"city":"Chanéaz","zipCode":1409,"lat":46.7288,"long":6.7448,"closestMainCity":{"city":"Yverdon-les-Bains","zipCode":1400,"lat":46.7785,"long":6.6411}},{"city":"Prévondavaux","zipCode":1410,"lat":46.7296,"long":6.7956,"closestMainCity":{"city":"Yverdon-les-Bains","zipCode":1400,"lat":46.7785,"long":6.6411}},{"city":"Valeyres-sous-Ursins","zipCode":1412,"lat":46.7471,"long":6.6523,"closestMainCity":{"city":"Yverdon-les-Bains","zipCode":1400,"lat":46.7785,"long":6.6411}},{"city":"Orzens","zipCode":1413,"lat":46.7263,"long":6.683,"closestMainCity":{"city":"Yverdon-les-Bains","zipCode":1400,"lat":46.7785,"long":6.6411}},{"city":"Démoret","zipCode":1415,"lat":46.7469,"long":6.7609,"closestMainCity":{"city":"Yverdon-les-Bains","zipCode":1400,"lat":46.7785,"long":6.6411}},{"city":"Pailly","zipCode":1416,"lat":46.7012,"long":6.6754,"closestMainCity":{"city":"Yverdon-les-Bains","zipCode":1400,"lat":46.7785,"long":6.6411}},{"city":"Epautheyres","zipCode":1417,"lat":46.7394,"long":6.6426,"closestMainCity":{"city":"Yverdon-les-Bains","zipCode":1400,"lat":46.7785,"long":6.6411}},{"city":"Vuarrens","zipCode":1418,"lat":46.6858,"long":6.6479,"closestMainCity":{"city":"Yverdon-les-Bains","zipCode":1400,"lat":46.7785,"long":6.6411}},{"city":"Fiez","zipCode":1420,"lat":46.8282,"long":6.6239,"closestMainCity":{"city":"Yverdon-les-Bains","zipCode":1400,"lat":46.7785,"long":6.6411}},{"city":"Grandevent","zipCode":1421,"lat":46.8389,"long":6.6066,"closestMainCity":{"city":"Yverdon-les-Bains","zipCode":1400,"lat":46.7785,"long":6.6411}},{"city":"Grandson","zipCode":1422,"lat":46.8095,"long":6.646,"closestMainCity":{"city":"Yverdon-les-Bains","zipCode":1400,"lat":46.7785,"long":6.6411}},{"city":"Romairon","zipCode":1423,"lat":46.8502,"long":6.6425,"closestMainCity":{"city":"Yverdon-les-Bains","zipCode":1400,"lat":46.7785,"long":6.6411}},{"city":"Champagne","zipCode":1424,"lat":46.8321,"long":6.6598,"closestMainCity":{"city":"Yverdon-les-Bains","zipCode":1400,"lat":46.7785,"long":6.6411}},{"city":"OnnensVD","zipCode":1425,"lat":46.8389,"long":6.689,"closestMainCity":{"city":"Yverdon-les-Bains","zipCode":1400,"lat":46.7785,"long":6.6411}},{"city":"Concise","zipCode":1426,"lat":46.8503,"long":6.7197,"closestMainCity":{"city":"Yverdon-les-Bains","zipCode":1400,"lat":46.7785,"long":6.6411}},{"city":"Bonvillars","zipCode":1427,"lat":46.8398,"long":6.6713,"closestMainCity":{"city":"Yverdon-les-Bains","zipCode":1400,"lat":46.7785,"long":6.6411}},{"city":"Mutrux","zipCode":1428,"lat":46.8808,"long":6.7266,"closestMainCity":{"city":"Yverdon-les-Bains","zipCode":1400,"lat":46.7785,"long":6.6411}},{"city":"Giez","zipCode":1429,"lat":46.816,"long":6.6171,"closestMainCity":{"city":"Yverdon-les-Bains","zipCode":1400,"lat":46.7785,"long":6.6411}},{"city":"Orges","zipCode":1430,"lat":46.8093,"long":6.5835,"closestMainCity":{"city":"Yverdon-les-Bains","zipCode":1400,"lat":46.7785,"long":6.6411}},{"city":"Vugelles-LaMothe","zipCode":1431,"lat":46.825,"long":6.5738,"closestMainCity":{"city":"Yverdon-les-Bains","zipCode":1400,"lat":46.7785,"long":6.6411}},{"city":"Belmont-sur-Yverdon","zipCode":1432,"lat":46.7418,"long":6.6247,"closestMainCity":{"city":"Yverdon-les-Bains","zipCode":1400,"lat":46.7785,"long":6.6411}},{"city":"Suchy","zipCode":1433,"lat":46.7235,"long":6.5993,"closestMainCity":{"city":"Yverdon-les-Bains","zipCode":1400,"lat":46.7785,"long":6.6411}},{"city":"EpendesVD","zipCode":1434,"lat":46.7428,"long":6.6081,"closestMainCity":{"city":"Yverdon-les-Bains","zipCode":1400,"lat":46.7785,"long":6.6411}},{"city":"Essert-Pittet","zipCode":1435,"lat":46.7065,"long":6.569,"closestMainCity":{"city":"Yverdon-les-Bains","zipCode":1400,"lat":46.7785,"long":6.6411}},{"city":"Chamblon","zipCode":1436,"lat":46.7791,"long":6.6026,"closestMainCity":{"city":"Yverdon-les-Bains","zipCode":1400,"lat":46.7785,"long":6.6411}},{"city":"Suscévaz","zipCode":1437,"lat":46.7622,"long":6.5868,"closestMainCity":{"city":"Yverdon-les-Bains","zipCode":1400,"lat":46.7785,"long":6.6411}},{"city":"Mathod","zipCode":1438,"lat":46.7664,"long":6.5647,"closestMainCity":{"city":"Yverdon-les-Bains","zipCode":1400,"lat":46.7785,"long":6.6411}},{"city":"Rances","zipCode":1439,"lat":46.7607,"long":6.5297,"closestMainCity":{"city":"Yverdon-les-Bains","zipCode":1400,"lat":46.7785,"long":6.6411}},{"city":"Montagny-Chamard","zipCode":1440,"lat":46.7904,"long":6.6098,"closestMainCity":{"city":"Yverdon-les-Bains","zipCode":1400,"lat":46.7785,"long":6.6411}},{"city":"Valeyres-sous-Montagny","zipCode":1441,"lat":46.8005,"long":6.6037,"closestMainCity":{"city":"Yverdon-les-Bains","zipCode":1400,"lat":46.7785,"long":6.6411}},{"city":"Montagny-près-Yverdon","zipCode":1442,"lat":46.7929,"long":6.6122,"closestMainCity":{"city":"Yverdon-les-Bains","zipCode":1400,"lat":46.7785,"long":6.6411}},{"city":"Champvent","zipCode":1443,"lat":46.7829,"long":6.5719,"closestMainCity":{"city":"Yverdon-les-Bains","zipCode":1400,"lat":46.7785,"long":6.6411}},{"city":"Vuiteboeuf","zipCode":1445,"lat":46.8092,"long":6.5504,"closestMainCity":{"city":"Yverdon-les-Bains","zipCode":1400,"lat":46.7785,"long":6.6411}},{"city":"Baulmes","zipCode":1446,"lat":46.7903,"long":6.5228,"closestMainCity":{"city":"Yverdon-les-Bains","zipCode":1400,"lat":46.7785,"long":6.6411}},{"city":"LaSagne(Ste-Croix)","zipCode":1450,"lat":46.8165,"long":6.4982,"closestMainCity":{"city":"Yverdon-les-Bains","zipCode":1400,"lat":46.7785,"long":6.6411}},{"city":"LesRasses","zipCode":1452,"lat":46.829,"long":6.5391,"closestMainCity":{"city":"Yverdon-les-Bains","zipCode":1400,"lat":46.7785,"long":6.6411}},{"city":"Bullet","zipCode":1453,"lat":46.8312,"long":6.554,"closestMainCity":{"city":"Yverdon-les-Bains","zipCode":1400,"lat":46.7785,"long":6.6411}},{"city":"L'Auberson","zipCode":1454,"lat":46.8192,"long":6.4597,"closestMainCity":{"city":"Yverdon-les-Bains","zipCode":1400,"lat":46.7785,"long":6.6411}},{"city":"Yvonand","zipCode":1462,"lat":46.8003,"long":6.7425,"closestMainCity":{"city":"Yverdon-les-Bains","zipCode":1400,"lat":46.7785,"long":6.6411}},{"city":"Rovray","zipCode":1463,"lat":46.7849,"long":6.7644,"closestMainCity":{"city":"Yverdon-les-Bains","zipCode":1400,"lat":46.7785,"long":6.6411}},{"city":"Chavannes-le-Chêne","zipCode":1464,"lat":46.777,"long":6.7779,"closestMainCity":{"city":"Yverdon-les-Bains","zipCode":1400,"lat":46.7785,"long":6.6411}},{"city":"Cheyres","zipCode":1468,"lat":46.8144,"long":6.7868,"closestMainCity":{"city":"Yverdon-les-Bains","zipCode":1400,"lat":46.7785,"long":6.6411}},{"city":"Seiry","zipCode":1470,"lat":46.8141,"long":6.8313,"closestMainCity":{"city":"Yverdon-les-Bains","zipCode":1400,"lat":46.7785,"long":6.6411}},{"city":"ChâtillonFR","zipCode":1473,"lat":46.8305,"long":6.8315,"closestMainCity":{"city":"Yverdon-les-Bains","zipCode":1400,"lat":46.7785,"long":6.6411}},{"city":"ChâblesFR","zipCode":1474,"lat":46.8245,"long":6.8108,"closestMainCity":{"city":"Yverdon-les-Bains","zipCode":1400,"lat":46.7785,"long":6.6411}},{"city":"ForelFR","zipCode":1475,"lat":46.8774,"long":6.8891,"closestMainCity":{"city":"Neuchâtel","zipCode":2000,"lat":46.9918,"long":6.931}},{"city":"CugyFR","zipCode":1482,"lat":46.8148,"long":6.8889,"closestMainCity":{"city":"Yverdon-les-Bains","zipCode":1400,"lat":46.7785,"long":6.6411}},{"city":"Vesin","zipCode":1483,"lat":46.8105,"long":6.8752,"closestMainCity":{"city":"Yverdon-les-Bains","zipCode":1400,"lat":46.7785,"long":6.6411}},{"city":"Granges-de-Vesin","zipCode":1484,"lat":46.7989,"long":6.8503,"closestMainCity":{"city":"Yverdon-les-Bains","zipCode":1400,"lat":46.7785,"long":6.6411}},{"city":"Nuvilly","zipCode":1485,"lat":46.7834,"long":6.8278,"closestMainCity":{"city":"Yverdon-les-Bains","zipCode":1400,"lat":46.7785,"long":6.6411}},{"city":"Vuissens","zipCode":1486,"lat":46.7334,"long":6.7662,"closestMainCity":{"city":"Yverdon-les-Bains","zipCode":1400,"lat":46.7785,"long":6.6411}},{"city":"Murist","zipCode":1489,"lat":46.7902,"long":6.8071,"closestMainCity":{"city":"Yverdon-les-Bains","zipCode":1400,"lat":46.7785,"long":6.6411}},{"city":"Vucherens","zipCode":1509,"lat":46.627,"long":6.7758,"closestMainCity":{"city":"Lausanne","zipCode":1001,"lat":46.5218,"long":6.633}},{"city":"Moudon","zipCode":1510,"lat":46.6676,"long":6.7978,"closestMainCity":{"city":"Yverdon-les-Bains","zipCode":1400,"lat":46.7785,"long":6.6411}},{"city":"Chavannes-sur-Moudon","zipCode":1512,"lat":46.6587,"long":6.8096,"closestMainCity":{"city":"Yverdon-les-Bains","zipCode":1400,"lat":46.7785,"long":6.6411}},{"city":"Hermenches","zipCode":1513,"lat":46.6403,"long":6.7627,"closestMainCity":{"city":"Lausanne","zipCode":1001,"lat":46.5218,"long":6.633}},{"city":"Bussy-sur-Moudon","zipCode":1514,"lat":46.6905,"long":6.8096,"closestMainCity":{"city":"Yverdon-les-Bains","zipCode":1400,"lat":46.7785,"long":6.6411}},{"city":"Villars-le-Comte","zipCode":1515,"lat":46.7131,"long":6.8014,"closestMainCity":{"city":"Yverdon-les-Bains","zipCode":1400,"lat":46.7785,"long":6.6411}},{"city":"Curtilles","zipCode":1521,"lat":46.7004,"long":6.8506,"closestMainCity":{"city":"Yverdon-les-Bains","zipCode":1400,"lat":46.7785,"long":6.6411}},{"city":"Lucens","zipCode":1522,"lat":46.7085,"long":6.8393,"closestMainCity":{"city":"Yverdon-les-Bains","zipCode":1400,"lat":46.7785,"long":6.6411}},{"city":"Granges-près-Marnand","zipCode":1523,"lat":46.7765,"long":6.8959,"closestMainCity":{"city":"Yverdon-les-Bains","zipCode":1400,"lat":46.7785,"long":6.6411}},{"city":"Marnand","zipCode":1524,"lat":46.7573,"long":6.8991,"closestMainCity":{"city":"Bulle","zipCode":1630,"lat":46.618,"long":7.0569}},{"city":"Henniez","zipCode":1525,"lat":46.7422,"long":6.887,"closestMainCity":{"city":"Bulle","zipCode":1630,"lat":46.618,"long":7.0569}},{"city":"Cremin","zipCode":1526,"lat":46.7089,"long":6.8326,"closestMainCity":{"city":"Yverdon-les-Bains","zipCode":1400,"lat":46.7785,"long":6.6411}},{"city":"VilleneuveFR","zipCode":1527,"lat":46.7421,"long":6.8498,"closestMainCity":{"city":"Yverdon-les-Bains","zipCode":1400,"lat":46.7785,"long":6.6411}},{"city":"Praratoud","zipCode":1528,"lat":46.7353,"long":6.8489,"closestMainCity":{"city":"Yverdon-les-Bains","zipCode":1400,"lat":46.7785,"long":6.6411}},{"city":"Cheiry","zipCode":1529,"lat":46.7504,"long":6.8355,"closestMainCity":{"city":"Yverdon-les-Bains","zipCode":1400,"lat":46.7785,"long":6.6411}},{"city":"Payerne","zipCode":1530,"lat":46.8219,"long":6.9382,"closestMainCity":{"city":"Fribourg","zipCode":1700,"lat":46.8024,"long":7.1513}},{"city":"Fétigny","zipCode":1532,"lat":46.7982,"long":6.9117,"closestMainCity":{"city":"Fribourg","zipCode":1700,"lat":46.8024,"long":7.1513}},{"city":"Ménières","zipCode":1533,"lat":46.7827,"long":6.8801,"closestMainCity":{"city":"Yverdon-les-Bains","zipCode":1400,"lat":46.7785,"long":6.6411}},{"city":"Chapelle(Broye)","zipCode":1534,"lat":46.7714,"long":6.8524,"closestMainCity":{"city":"Yverdon-les-Bains","zipCode":1400,"lat":46.7785,"long":6.6411}},{"city":"Combremont-le-Grand","zipCode":1535,"lat":46.7617,"long":6.8182,"closestMainCity":{"city":"Yverdon-les-Bains","zipCode":1400,"lat":46.7785,"long":6.6411}},{"city":"Combremont-le-Petit","zipCode":1536,"lat":46.7494,"long":6.8093,"closestMainCity":{"city":"Yverdon-les-Bains","zipCode":1400,"lat":46.7785,"long":6.6411}},{"city":"Champtauroz","zipCode":1537,"lat":46.759,"long":6.7863,"closestMainCity":{"city":"Yverdon-les-Bains","zipCode":1400,"lat":46.7785,"long":6.6411}},{"city":"Treytorrens(Payerne)","zipCode":1538,"lat":46.7722,"long":6.8048,"closestMainCity":{"city":"Yverdon-les-Bains","zipCode":1400,"lat":46.7785,"long":6.6411}},{"city":"MorensFR","zipCode":1541,"lat":46.8436,"long":6.907,"closestMainCity":{"city":"Neuchâtel","zipCode":2000,"lat":46.9918,"long":6.931}},{"city":"Rueyres-les-Prés","zipCode":1542,"lat":46.857,"long":6.9111,"closestMainCity":{"city":"Neuchâtel","zipCode":2000,"lat":46.9918,"long":6.931}},{"city":"Grandcour","zipCode":1543,"lat":46.8719,"long":6.9284,"closestMainCity":{"city":"Neuchâtel","zipCode":2000,"lat":46.9918,"long":6.931}},{"city":"Gletterens","zipCode":1544,"lat":46.8949,"long":6.9369,"closestMainCity":{"city":"Neuchâtel","zipCode":2000,"lat":46.9918,"long":6.931}},{"city":"Chevroux","zipCode":1545,"lat":46.8884,"long":6.9069,"closestMainCity":{"city":"Neuchâtel","zipCode":2000,"lat":46.9918,"long":6.931}},{"city":"Vers-chez-Perrin","zipCode":1551,"lat":46.7977,"long":6.9436,"closestMainCity":{"city":"Fribourg","zipCode":1700,"lat":46.8024,"long":7.1513}},{"city":"Trey","zipCode":1552,"lat":46.7702,"long":6.9265,"closestMainCity":{"city":"Fribourg","zipCode":1700,"lat":46.8024,"long":7.1513}},{"city":"Châtonnaye","zipCode":1553,"lat":46.7545,"long":6.938,"closestMainCity":{"city":"Fribourg","zipCode":1700,"lat":46.8024,"long":7.1513}},{"city":"Sédeilles","zipCode":1554,"lat":46.7486,"long":6.9331,"closestMainCity":{"city":"Bulle","zipCode":1630,"lat":46.618,"long":7.0569}},{"city":"Villarzel","zipCode":1555,"lat":46.7476,"long":6.9122,"closestMainCity":{"city":"Bulle","zipCode":1630,"lat":46.618,"long":7.0569}},{"city":"Corcelles-près-Payerne","zipCode":1562,"lat":46.8332,"long":6.9623,"closestMainCity":{"city":"Fribourg","zipCode":1700,"lat":46.8024,"long":7.1513}},{"city":"DompierreFR","zipCode":1563,"lat":46.8521,"long":6.9907,"closestMainCity":{"city":"Fribourg","zipCode":1700,"lat":46.8024,"long":7.1513}},{"city":"Domdidier","zipCode":1564,"lat":46.8672,"long":7.0134,"closestMainCity":{"city":"Fribourg","zipCode":1700,"lat":46.8024,"long":7.1513}},{"city":"Vallon","zipCode":1565,"lat":46.8838,"long":6.9554,"closestMainCity":{"city":"Neuchâtel","zipCode":2000,"lat":46.9918,"long":6.931}},{"city":"St-AubinFR","zipCode":1566,"lat":46.89,"long":6.9805,"closestMainCity":{"city":"Neuchâtel","zipCode":2000,"lat":46.9918,"long":6.931}},{"city":"Delley","zipCode":1567,"lat":46.9198,"long":6.9577,"closestMainCity":{"city":"Neuchâtel","zipCode":2000,"lat":46.9918,"long":6.931}},{"city":"Portalban","zipCode":1568,"lat":46.9189,"long":6.9563,"closestMainCity":{"city":"Neuchâtel","zipCode":2000,"lat":46.9918,"long":6.931}},{"city":"Oleyres","zipCode":1580,"lat":46.8545,"long":7.0379,"closestMainCity":{"city":"Fribourg","zipCode":1700,"lat":46.8024,"long":7.1513}},{"city":"Villarepos","zipCode":1583,"lat":46.8643,"long":7.1264,"closestMainCity":{"city":"Fribourg","zipCode":1700,"lat":46.8024,"long":7.1513}},{"city":"Villars-le-Grand","zipCode":1584,"lat":46.9049,"long":6.99,"closestMainCity":{"city":"Neuchâtel","zipCode":2000,"lat":46.9918,"long":6.931}},{"city":"Cotterd","zipCode":1585,"lat":46.9209,"long":7.0224,"closestMainCity":{"city":"Neuchâtel","zipCode":2000,"lat":46.9918,"long":6.931}},{"city":"Vallamand","zipCode":1586,"lat":46.9293,"long":7.0403,"closestMainCity":{"city":"Neuchâtel","zipCode":2000,"lat":46.9918,"long":6.931}},{"city":"Constantine","zipCode":1587,"lat":46.9183,"long":7.0086,"closestMainCity":{"city":"Neuchâtel","zipCode":2000,"lat":46.9918,"long":6.931}},{"city":"Cudrefin","zipCode":1588,"lat":46.9558,"long":7.0185,"closestMainCity":{"city":"Neuchâtel","zipCode":2000,"lat":46.9918,"long":6.931}},{"city":"Chabrey","zipCode":1589,"lat":46.9269,"long":6.9816,"closestMainCity":{"city":"Neuchâtel","zipCode":2000,"lat":46.9918,"long":6.931}},{"city":"Clavaleyres","zipCode":1595,"lat":46.8991,"long":7.0928,"closestMainCity":{"city":"Fribourg","zipCode":1700,"lat":46.8024,"long":7.1513}},{"city":"Palézieux-Village","zipCode":1607,"lat":46.5553,"long":6.8311,"closestMainCity":{"city":"Montreux","zipCode":1820,"lat":46.433,"long":6.9114}},{"city":"Chapelle(Glâne)","zipCode":1608,"lat":46.5887,"long":6.8372,"closestMainCity":{"city":"Bulle","zipCode":1630,"lat":46.618,"long":7.0569}},{"city":"Besencens","zipCode":1609,"lat":46.5875,"long":6.8687,"closestMainCity":{"city":"Bulle","zipCode":1630,"lat":46.618,"long":7.0569}},{"city":"Oron-la-Ville","zipCode":1610,"lat":46.5709,"long":6.8256,"closestMainCity":{"city":"Lausanne","zipCode":1001,"lat":46.5218,"long":6.633}},{"city":"LeCrêt-près-Semsales","zipCode":1611,"lat":46.609,"long":6.9097,"closestMainCity":{"city":"Bulle","zipCode":1630,"lat":46.618,"long":7.0569}},{"city":"Ecoteaux","zipCode":1612,"lat":46.5469,"long":6.8641,"closestMainCity":{"city":"Montreux","zipCode":1820,"lat":46.433,"long":6.9114}},{"city":"Maracon","zipCode":1613,"lat":46.5501,"long":6.8722,"closestMainCity":{"city":"Montreux","zipCode":1820,"lat":46.433,"long":6.9114}},{"city":"Granges(Veveyse)","zipCode":1614,"lat":46.5261,"long":6.83,"closestMainCity":{"city":"Montreux","zipCode":1820,"lat":46.433,"long":6.9114}},{"city":"Bossonnens","zipCode":1615,"lat":46.5285,"long":6.8525,"closestMainCity":{"city":"Montreux","zipCode":1820,"lat":46.433,"long":6.9114}},{"city":"Attalens","zipCode":1616,"lat":46.5056,"long":6.8504,"closestMainCity":{"city":"Montreux","zipCode":1820,"lat":46.433,"long":6.9114}},{"city":"Tatroz","zipCode":1617,"lat":46.527,"long":6.8669,"closestMainCity":{"city":"Montreux","zipCode":1820,"lat":46.433,"long":6.9114}},{"city":"Châtel-St-Denis","zipCode":1618,"lat":46.5269,"long":6.9008,"closestMainCity":{"city":"Montreux","zipCode":1820,"lat":46.433,"long":6.9114}},{"city":"LesPaccots","zipCode":1619,"lat":46.5241,"long":6.9463,"closestMainCity":{"city":"Montreux","zipCode":1820,"lat":46.433,"long":6.9114}},{"city":"Semsales","zipCode":1623,"lat":46.5732,"long":6.9295,"closestMainCity":{"city":"Bulle","zipCode":1630,"lat":46.618,"long":7.0569}},{"city":"LaVerrerie","zipCode":1624,"lat":46.5995,"long":6.9203,"closestMainCity":{"city":"Bulle","zipCode":1630,"lat":46.618,"long":7.0569}},{"city":"Sâles(Gruyère)","zipCode":1625,"lat":46.6347,"long":6.9734,"closestMainCity":{"city":"Bulle","zipCode":1630,"lat":46.618,"long":7.0569}},{"city":"Treyfayes","zipCode":1626,"lat":46.6541,"long":6.9533,"closestMainCity":{"city":"Bulle","zipCode":1630,"lat":46.618,"long":7.0569}},{"city":"Vaulruz","zipCode":1627,"lat":46.6216,"long":6.9882,"closestMainCity":{"city":"Bulle","zipCode":1630,"lat":46.618,"long":7.0569}},{"city":"Vuadens","zipCode":1628,"lat":46.6155,"long":7.0173,"closestMainCity":{"city":"Bulle","zipCode":1630,"lat":46.618,"long":7.0569}},{"city":"Bulle","zipCode":1630,"lat":46.618,"long":7.0569,"closestMainCity":{"city":"Bulle","zipCode":1630,"lat":46.618,"long":7.0569}},{"city":"Riaz","zipCode":1632,"lat":46.6422,"long":7.0618,"closestMainCity":{"city":"Bulle","zipCode":1630,"lat":46.618,"long":7.0569}},{"city":"Vuippens","zipCode":1633,"lat":46.66,"long":7.0746,"closestMainCity":{"city":"Bulle","zipCode":1630,"lat":46.618,"long":7.0569}},{"city":"LaRocheFR","zipCode":1634,"lat":46.6962,"long":7.1372,"closestMainCity":{"city":"Bulle","zipCode":1630,"lat":46.618,"long":7.0569}},{"city":"LaTour-de-Trême","zipCode":1635,"lat":46.6106,"long":7.065,"closestMainCity":{"city":"Bulle","zipCode":1630,"lat":46.618,"long":7.0569}},{"city":"Broc","zipCode":1636,"lat":46.6051,"long":7.0989,"closestMainCity":{"city":"Bulle","zipCode":1630,"lat":46.618,"long":7.0569}},{"city":"Charmey(Gruyère)","zipCode":1637,"lat":46.6196,"long":7.1649,"closestMainCity":{"city":"Bulle","zipCode":1630,"lat":46.618,"long":7.0569}},{"city":"Morlon","zipCode":1638,"lat":46.6256,"long":7.0838,"closestMainCity":{"city":"Bulle","zipCode":1630,"lat":46.618,"long":7.0569}},{"city":"Sorens","zipCode":1642,"lat":46.6691,"long":7.0525,"closestMainCity":{"city":"Bulle","zipCode":1630,"lat":46.618,"long":7.0569}},{"city":"Gumefens","zipCode":1643,"lat":46.6779,"long":7.0766,"closestMainCity":{"city":"Bulle","zipCode":1630,"lat":46.618,"long":7.0569}},{"city":"Avry-devant-Pont","zipCode":1644,"lat":46.6871,"long":7.0876,"closestMainCity":{"city":"Bulle","zipCode":1630,"lat":46.618,"long":7.0569}},{"city":"LeBry","zipCode":1645,"lat":46.7046,"long":7.0825,"closestMainCity":{"city":"Bulle","zipCode":1630,"lat":46.618,"long":7.0569}},{"city":"Echarlens","zipCode":1646,"lat":46.6478,"long":7.0742,"closestMainCity":{"city":"Bulle","zipCode":1630,"lat":46.618,"long":7.0569}},{"city":"Corbières","zipCode":1647,"lat":46.6595,"long":7.101,"closestMainCity":{"city":"Bulle","zipCode":1630,"lat":46.618,"long":7.0569}},{"city":"Hauteville","zipCode":1648,"lat":46.6701,"long":7.1104,"closestMainCity":{"city":"Bulle","zipCode":1630,"lat":46.618,"long":7.0569}},{"city":"Pont-la-Ville","zipCode":1649,"lat":46.7,"long":7.1,"closestMainCity":{"city":"Bulle","zipCode":1630,"lat":46.618,"long":7.0569}},{"city":"Villarvolard","zipCode":1651,"lat":46.6453,"long":7.1074,"closestMainCity":{"city":"Bulle","zipCode":1630,"lat":46.618,"long":7.0569}},{"city":"Villarbeney","zipCode":1652,"lat":46.6302,"long":7.1095,"closestMainCity":{"city":"Bulle","zipCode":1630,"lat":46.618,"long":7.0569}},{"city":"Châtel-sur-Montsalvens","zipCode":1653,"lat":46.6165,"long":7.1327,"closestMainCity":{"city":"Bulle","zipCode":1630,"lat":46.618,"long":7.0569}},{"city":"CerniatFR","zipCode":1654,"lat":46.6333,"long":7.1573,"closestMainCity":{"city":"Bulle","zipCode":1630,"lat":46.618,"long":7.0569}},{"city":"Jaun","zipCode":1656,"lat":46.6113,"long":7.2759,"closestMainCity":{"city":"Bulle","zipCode":1630,"lat":46.618,"long":7.0569}},{"city":"Abländschen","zipCode":1657,"lat":46.5724,"long":7.2892,"closestMainCity":{"city":"Bulle","zipCode":1630,"lat":46.618,"long":7.0569}},{"city":"LaTine","zipCode":1658,"lat":46.4696,"long":7.0522,"closestMainCity":{"city":"Montreux","zipCode":1820,"lat":46.433,"long":6.9114}},{"city":"Rougemont","zipCode":1659,"lat":46.4881,"long":7.2066,"closestMainCity":{"city":"Bulle","zipCode":1630,"lat":46.618,"long":7.0569}},{"city":"LaLécherette","zipCode":1660,"lat":46.4199,"long":7.1073,"closestMainCity":{"city":"Montreux","zipCode":1820,"lat":46.433,"long":6.9114}},{"city":"LePâquier-Montbarry","zipCode":1661,"lat":46.5948,"long":7.0533,"closestMainCity":{"city":"Bulle","zipCode":1630,"lat":46.618,"long":7.0569}},{"city":"Gruyères","zipCode":1663,"lat":46.5834,"long":7.0821,"closestMainCity":{"city":"Bulle","zipCode":1630,"lat":46.618,"long":7.0569}},{"city":"Estavannens","zipCode":1665,"lat":46.5605,"long":7.1019,"closestMainCity":{"city":"Bulle","zipCode":1630,"lat":46.618,"long":7.0569}},{"city":"Villars-sous-Mont","zipCode":1666,"lat":46.5412,"long":7.0704,"closestMainCity":{"city":"Bulle","zipCode":1630,"lat":46.618,"long":7.0569}},{"city":"Enney","zipCode":1667,"lat":46.5667,"long":7.0842,"closestMainCity":{"city":"Bulle","zipCode":1630,"lat":46.618,"long":7.0569}},{"city":"Neirivue","zipCode":1669,"lat":46.525,"long":7.0582,"closestMainCity":{"city":"Bulle","zipCode":1630,"lat":46.618,"long":7.0569}},{"city":"Esmonts","zipCode":1670,"lat":46.6432,"long":6.8451,"closestMainCity":{"city":"Bulle","zipCode":1630,"lat":46.618,"long":7.0569}},{"city":"Auboranges","zipCode":1673,"lat":46.5846,"long":6.8045,"closestMainCity":{"city":"Lausanne","zipCode":1001,"lat":46.5218,"long":6.633}},{"city":"Montet(Glâne)","zipCode":1674,"lat":46.6413,"long":6.813,"closestMainCity":{"city":"Bulle","zipCode":1630,"lat":46.618,"long":7.0569}},{"city":"Vauderens","zipCode":1675,"lat":46.6228,"long":6.8507,"closestMainCity":{"city":"Bulle","zipCode":1630,"lat":46.618,"long":7.0569}},{"city":"Chavannes-les-Forts","zipCode":1676,"lat":46.653,"long":6.8985,"closestMainCity":{"city":"Bulle","zipCode":1630,"lat":46.618,"long":7.0569}},{"city":"Prez-vers-Siviriez","zipCode":1677,"lat":46.6397,"long":6.8748,"closestMainCity":{"city":"Bulle","zipCode":1630,"lat":46.618,"long":7.0569}},{"city":"Siviriez","zipCode":1678,"lat":46.6585,"long":6.8777,"closestMainCity":{"city":"Bulle","zipCode":1630,"lat":46.618,"long":7.0569}},{"city":"Villaraboud","zipCode":1679,"lat":46.6607,"long":6.9135,"closestMainCity":{"city":"Bulle","zipCode":1630,"lat":46.618,"long":7.0569}},{"city":"RomontFR","zipCode":1680,"lat":46.6965,"long":6.919,"closestMainCity":{"city":"Bulle","zipCode":1630,"lat":46.618,"long":7.0569}},{"city":"Hennens","zipCode":1681,"lat":46.6837,"long":6.8864,"closestMainCity":{"city":"Bulle","zipCode":1630,"lat":46.618,"long":7.0569}},{"city":"Prévonloup","zipCode":1682,"lat":46.6979,"long":6.8828,"closestMainCity":{"city":"Bulle","zipCode":1630,"lat":46.618,"long":7.0569}},{"city":"Chesalles-sur-Moudon","zipCode":1683,"lat":46.6762,"long":6.8506,"closestMainCity":{"city":"Bulle","zipCode":1630,"lat":46.618,"long":7.0569}},{"city":"MézièresFR","zipCode":1684,"lat":46.6796,"long":6.9263,"closestMainCity":{"city":"Bulle","zipCode":1630,"lat":46.618,"long":7.0569}},{"city":"Villariaz","zipCode":1685,"lat":46.6662,"long":6.9409,"closestMainCity":{"city":"Bulle","zipCode":1630,"lat":46.618,"long":7.0569}},{"city":"Grangettes-près-Romont","zipCode":1686,"lat":46.6717,"long":6.9753,"closestMainCity":{"city":"Bulle","zipCode":1630,"lat":46.618,"long":7.0569}},{"city":"LaMagne","zipCode":1687,"lat":46.6347,"long":6.9323,"closestMainCity":{"city":"Bulle","zipCode":1630,"lat":46.618,"long":7.0569}},{"city":"Lieffrens","zipCode":1688,"lat":46.638,"long":6.9017,"closestMainCity":{"city":"Bulle","zipCode":1630,"lat":46.618,"long":7.0569}},{"city":"LeChâtelard-près-Romont","zipCode":1689,"lat":46.6804,"long":6.9792,"closestMainCity":{"city":"Bulle","zipCode":1630,"lat":46.618,"long":7.0569}},{"city":"Villaz-St-Pierre","zipCode":1690,"lat":46.7207,"long":6.9564,"closestMainCity":{"city":"Bulle","zipCode":1630,"lat":46.618,"long":7.0569}},{"city":"Villarimboud","zipCode":1691,"lat":46.7417,"long":6.9652,"closestMainCity":{"city":"Bulle","zipCode":1630,"lat":46.618,"long":7.0569}},{"city":"Massonnens","zipCode":1692,"lat":46.6966,"long":6.9762,"closestMainCity":{"city":"Bulle","zipCode":1630,"lat":46.618,"long":7.0569}},{"city":"Villargiroud","zipCode":1694,"lat":46.7055,"long":7.0022,"closestMainCity":{"city":"Bulle","zipCode":1630,"lat":46.618,"long":7.0569}},{"city":"Villarsel-le-Gibloux","zipCode":1695,"lat":46.713,"long":7.0177,"closestMainCity":{"city":"Bulle","zipCode":1630,"lat":46.618,"long":7.0569}},{"city":"Vuisternens-en-Ogoz","zipCode":1696,"lat":46.7081,"long":7.054,"closestMainCity":{"city":"Bulle","zipCode":1630,"lat":46.618,"long":7.0569}},{"city":"LesEcasseys","zipCode":1697,"lat":46.623,"long":6.9108,"closestMainCity":{"city":"Bulle","zipCode":1630,"lat":46.618,"long":7.0569}},{"city":"Pont(Veveyse)","zipCode":1699,"lat":46.5885,"long":6.8513,"closestMainCity":{"city":"Bulle","zipCode":1630,"lat":46.618,"long":7.0569}},{"city":"Fribourg","zipCode":1700,"lat":46.8024,"long":7.1513,"closestMainCity":{"city":"Fribourg","zipCode":1700,"lat":46.8024,"long":7.1513}},{"city":"Tafers","zipCode":1712,"lat":46.8148,"long":7.2185,"closestMainCity":{"city":"Fribourg","zipCode":1700,"lat":46.8024,"long":7.1513}},{"city":"St.Antoni","zipCode":1713,"lat":46.8221,"long":7.2609,"closestMainCity":{"city":"Fribourg","zipCode":1700,"lat":46.8024,"long":7.1513}},{"city":"Heitenried","zipCode":1714,"lat":46.8276,"long":7.2994,"closestMainCity":{"city":"Fribourg","zipCode":1700,"lat":46.8024,"long":7.1513}},{"city":"AlterswilFR","zipCode":1715,"lat":46.7959,"long":7.2588,"closestMainCity":{"city":"Fribourg","zipCode":1700,"lat":46.8024,"long":7.1513}},{"city":"Plaffeien","zipCode":1716,"lat":46.742,"long":7.2867,"closestMainCity":{"city":"Fribourg","zipCode":1700,"lat":46.8024,"long":7.1513}},{"city":"St.Ursen","zipCode":1717,"lat":46.7869,"long":7.2243,"closestMainCity":{"city":"Fribourg","zipCode":1700,"lat":46.8024,"long":7.1513}},{"city":"Rechthalten","zipCode":1718,"lat":46.7677,"long":7.2403,"closestMainCity":{"city":"Fribourg","zipCode":1700,"lat":46.8024,"long":7.1513}},{"city":"Zumholz","zipCode":1719,"lat":46.6871,"long":7.3155,"closestMainCity":{"city":"Fribourg","zipCode":1700,"lat":46.8024,"long":7.1513}},{"city":"Corminboeuf","zipCode":1720,"lat":46.8103,"long":7.1054,"closestMainCity":{"city":"Fribourg","zipCode":1700,"lat":46.8024,"long":7.1513}},{"city":"Cournillens","zipCode":1721,"lat":46.8587,"long":7.1026,"closestMainCity":{"city":"Fribourg","zipCode":1700,"lat":46.8024,"long":7.1513}},{"city":"Bourguillon","zipCode":1722,"lat":46.8013,"long":7.1777,"closestMainCity":{"city":"Fribourg","zipCode":1700,"lat":46.8024,"long":7.1513}},{"city":"Marly","zipCode":1723,"lat":46.7761,"long":7.1646,"closestMainCity":{"city":"Fribourg","zipCode":1700,"lat":46.8024,"long":7.1513}},{"city":"LeMouret","zipCode":1724,"lat":46.7318,"long":7.1875,"closestMainCity":{"city":"Fribourg","zipCode":1700,"lat":46.8024,"long":7.1513}},{"city":"Posieux","zipCode":1725,"lat":46.7623,"long":7.0971,"closestMainCity":{"city":"Fribourg","zipCode":1700,"lat":46.8024,"long":7.1513}},{"city":"Grenilles","zipCode":1726,"lat":46.7285,"long":7.0503,"closestMainCity":{"city":"Fribourg","zipCode":1700,"lat":46.8024,"long":7.1513}},{"city":"Corpataux","zipCode":1727,"lat":46.7433,"long":7.0971,"closestMainCity":{"city":"Fribourg","zipCode":1700,"lat":46.8024,"long":7.1513}},{"city":"RossensFR","zipCode":1728,"lat":46.7201,"long":7.1034,"closestMainCity":{"city":"Fribourg","zipCode":1700,"lat":46.8024,"long":7.1513}},{"city":"Ecuvillens","zipCode":1730,"lat":46.7578,"long":7.0828,"closestMainCity":{"city":"Fribourg","zipCode":1700,"lat":46.8024,"long":7.1513}},{"city":"EpendesFR","zipCode":1731,"lat":46.7537,"long":7.1461,"closestMainCity":{"city":"Fribourg","zipCode":1700,"lat":46.8024,"long":7.1513}},{"city":"Arconciel","zipCode":1732,"lat":46.7473,"long":7.1215,"closestMainCity":{"city":"Fribourg","zipCode":1700,"lat":46.8024,"long":7.1513}},{"city":"Treyvaux","zipCode":1733,"lat":46.728,"long":7.1377,"closestMainCity":{"city":"Fribourg","zipCode":1700,"lat":46.8024,"long":7.1513}},{"city":"Tentlingen","zipCode":1734,"lat":46.7692,"long":7.1977,"closestMainCity":{"city":"Fribourg","zipCode":1700,"lat":46.8024,"long":7.1513}},{"city":"Giffers","zipCode":1735,"lat":46.7623,"long":7.2085,"closestMainCity":{"city":"Fribourg","zipCode":1700,"lat":46.8024,"long":7.1513}},{"city":"St.Silvester","zipCode":1736,"lat":46.7425,"long":7.224,"closestMainCity":{"city":"Fribourg","zipCode":1700,"lat":46.8024,"long":7.1513}},{"city":"Plasselb","zipCode":1737,"lat":46.7349,"long":7.2512,"closestMainCity":{"city":"Fribourg","zipCode":1700,"lat":46.8024,"long":7.1513}},{"city":"Sangernboden","zipCode":1738,"lat":46.7133,"long":7.3519,"closestMainCity":{"city":"Fribourg","zipCode":1700,"lat":46.8024,"long":7.1513}},{"city":"NeyruzFR","zipCode":1740,"lat":46.7681,"long":7.0669,"closestMainCity":{"city":"Fribourg","zipCode":1700,"lat":46.8024,"long":7.1513}},{"city":"CottensFR","zipCode":1741,"lat":46.7522,"long":7.0313,"closestMainCity":{"city":"Fribourg","zipCode":1700,"lat":46.8024,"long":7.1513}},{"city":"Autigny","zipCode":1742,"lat":46.7366,"long":7.02,"closestMainCity":{"city":"Fribourg","zipCode":1700,"lat":46.8024,"long":7.1513}},{"city":"Chénens","zipCode":1744,"lat":46.7416,"long":7.004,"closestMainCity":{"city":"Fribourg","zipCode":1700,"lat":46.8024,"long":7.1513}},{"city":"Lentigny","zipCode":1745,"lat":46.7611,"long":7.0029,"closestMainCity":{"city":"Fribourg","zipCode":1700,"lat":46.8024,"long":7.1513}},{"city":"Prez-vers-Noréaz","zipCode":1746,"lat":46.7854,"long":7.0158,"closestMainCity":{"city":"Fribourg","zipCode":1700,"lat":46.8024,"long":7.1513}},{"city":"Corserey","zipCode":1747,"lat":46.7731,"long":6.9887,"closestMainCity":{"city":"Fribourg","zipCode":1700,"lat":46.8024,"long":7.1513}},{"city":"Torny-le-Grand","zipCode":1748,"lat":46.772,"long":6.9667,"closestMainCity":{"city":"Fribourg","zipCode":1700,"lat":46.8024,"long":7.1513}},{"city":"Middes","zipCode":1749,"lat":46.7692,"long":6.9502,"closestMainCity":{"city":"Fribourg","zipCode":1700,"lat":46.8024,"long":7.1513}},{"city":"Villars-sur-Glâne","zipCode":1752,"lat":46.7905,"long":7.1172,"closestMainCity":{"city":"Fribourg","zipCode":1700,"lat":46.8024,"long":7.1513}},{"city":"Matran","zipCode":1753,"lat":46.7859,"long":7.0977,"closestMainCity":{"city":"Fribourg","zipCode":1700,"lat":46.8024,"long":7.1513}},{"city":"Avry-sur-Matran","zipCode":1754,"lat":46.7875,"long":7.0673,"closestMainCity":{"city":"Fribourg","zipCode":1700,"lat":46.8024,"long":7.1513}},{"city":"OnnensFR","zipCode":1756,"lat":46.7747,"long":7.0371,"closestMainCity":{"city":"Fribourg","zipCode":1700,"lat":46.8024,"long":7.1513}},{"city":"Noréaz","zipCode":1757,"lat":46.8015,"long":7.0278,"closestMainCity":{"city":"Fribourg","zipCode":1700,"lat":46.8024,"long":7.1513}},{"city":"Givisiez","zipCode":1762,"lat":46.812,"long":7.1264,"closestMainCity":{"city":"Fribourg","zipCode":1700,"lat":46.8024,"long":7.1513}},{"city":"Granges-Paccot","zipCode":1763,"lat":46.8267,"long":7.1425,"closestMainCity":{"city":"Fribourg","zipCode":1700,"lat":46.8024,"long":7.1513}},{"city":"Grolley","zipCode":1772,"lat":46.8336,"long":7.0712,"closestMainCity":{"city":"Fribourg","zipCode":1700,"lat":46.8024,"long":7.1513}},{"city":"Russy","zipCode":1773,"lat":46.8413,"long":7.0035,"closestMainCity":{"city":"Fribourg","zipCode":1700,"lat":46.8024,"long":7.1513}},{"city":"Montagny-les-Monts","zipCode":1774,"lat":46.8107,"long":6.9915,"closestMainCity":{"city":"Fribourg","zipCode":1700,"lat":46.8024,"long":7.1513}},{"city":"Grandsivaz","zipCode":1775,"lat":46.785,"long":6.9808,"closestMainCity":{"city":"Fribourg","zipCode":1700,"lat":46.8024,"long":7.1513}},{"city":"Montagny-la-Ville","zipCode":1776,"lat":46.8175,"long":6.9957,"closestMainCity":{"city":"Fribourg","zipCode":1700,"lat":46.8024,"long":7.1513}},{"city":"Autafond","zipCode":1782,"lat":46.8288,"long":7.095,"closestMainCity":{"city":"Fribourg","zipCode":1700,"lat":46.8024,"long":7.1513}},{"city":"Barberêche","zipCode":1783,"lat":46.8643,"long":7.1264,"closestMainCity":{"city":"Fribourg","zipCode":1700,"lat":46.8024,"long":7.1513}},{"city":"Courtepin","zipCode":1784,"lat":46.8655,"long":7.1231,"closestMainCity":{"city":"Fribourg","zipCode":1700,"lat":46.8024,"long":7.1513}},{"city":"CressierFR","zipCode":1785,"lat":46.8979,"long":7.1407,"closestMainCity":{"city":"Fribourg","zipCode":1700,"lat":46.8024,"long":7.1513}},{"city":"Sugiez","zipCode":1786,"lat":46.9619,"long":7.1129,"closestMainCity":{"city":"Neuchâtel","zipCode":2000,"lat":46.9918,"long":6.931}},{"city":"Môtier(Vully)","zipCode":1787,"lat":46.9495,"long":7.084,"closestMainCity":{"city":"Neuchâtel","zipCode":2000,"lat":46.9918,"long":6.931}},{"city":"Praz(Vully)","zipCode":1788,"lat":46.9531,"long":7.098,"closestMainCity":{"city":"Neuchâtel","zipCode":2000,"lat":46.9918,"long":6.931}},{"city":"Lugnorre","zipCode":1789,"lat":46.951,"long":7.0749,"closestMainCity":{"city":"Neuchâtel","zipCode":2000,"lat":46.9918,"long":6.931}},{"city":"Courtaman","zipCode":1791,"lat":46.8734,"long":7.1316,"closestMainCity":{"city":"Fribourg","zipCode":1700,"lat":46.8024,"long":7.1513}},{"city":"Guschelmuth","zipCode":1792,"lat":46.8866,"long":7.1433,"closestMainCity":{"city":"Fribourg","zipCode":1700,"lat":46.8024,"long":7.1513}},{"city":"Jeuss","zipCode":1793,"lat":46.9365,"long":7.1412,"closestMainCity":{"city":"Fribourg","zipCode":1700,"lat":46.8024,"long":7.1513}},{"city":"Salvenach","zipCode":1794,"lat":46.9365,"long":7.1412,"closestMainCity":{"city":"Fribourg","zipCode":1700,"lat":46.8024,"long":7.1513}},{"city":"Courlevon","zipCode":1795,"lat":46.9365,"long":7.1412,"closestMainCity":{"city":"Fribourg","zipCode":1700,"lat":46.8024,"long":7.1513}},{"city":"Courgevaux","zipCode":1796,"lat":46.9065,"long":7.1121,"closestMainCity":{"city":"Fribourg","zipCode":1700,"lat":46.8024,"long":7.1513}},{"city":"Münchenwiler","zipCode":1797,"lat":46.9133,"long":7.1256,"closestMainCity":{"city":"Fribourg","zipCode":1700,"lat":46.8024,"long":7.1513}},{"city":"Vevey","zipCode":1800,"lat":46.463,"long":6.8435,"closestMainCity":{"city":"Montreux","zipCode":1820,"lat":46.433,"long":6.9114}},{"city":"LeMont-Pèlerin","zipCode":1801,"lat":46.4886,"long":6.8216,"closestMainCity":{"city":"Montreux","zipCode":1820,"lat":46.433,"long":6.9114}},{"city":"Corseaux","zipCode":1802,"lat":46.4722,"long":6.8294,"closestMainCity":{"city":"Montreux","zipCode":1820,"lat":46.433,"long":6.9114}},{"city":"Chardonne","zipCode":1803,"lat":46.4768,"long":6.8268,"closestMainCity":{"city":"Montreux","zipCode":1820,"lat":46.433,"long":6.9114}},{"city":"Corsier-sur-Vevey","zipCode":1804,"lat":46.4944,"long":6.871,"closestMainCity":{"city":"Montreux","zipCode":1820,"lat":46.433,"long":6.9114}},{"city":"Jongny","zipCode":1805,"lat":46.4788,"long":6.8411,"closestMainCity":{"city":"Montreux","zipCode":1820,"lat":46.433,"long":6.9114}},{"city":"St-Légier-LaChiésaz","zipCode":1806,"lat":46.4723,"long":6.8737,"closestMainCity":{"city":"Montreux","zipCode":1820,"lat":46.433,"long":6.9114}},{"city":"Blonay","zipCode":1807,"lat":46.4678,"long":6.8962,"closestMainCity":{"city":"Montreux","zipCode":1820,"lat":46.433,"long":6.9114}},{"city":"LesMonts-de-Corsier","zipCode":1808,"lat":46.5044,"long":6.8807,"closestMainCity":{"city":"Montreux","zipCode":1820,"lat":46.433,"long":6.9114}},{"city":"Fenil-sur-Corsier","zipCode":1809,"lat":46.4836,"long":6.8635,"closestMainCity":{"city":"Montreux","zipCode":1820,"lat":46.433,"long":6.9114}},{"city":"Vevey","zipCode":1811,"lat":46.4642,"long":6.8481,"closestMainCity":{"city":"Montreux","zipCode":1820,"lat":46.433,"long":6.9114}},{"city":"LaTour-de-Peilz","zipCode":1814,"lat":46.4531,"long":6.8586,"closestMainCity":{"city":"Montreux","zipCode":1820,"lat":46.433,"long":6.9114}},{"city":"Clarens","zipCode":1815,"lat":46.4405,"long":6.8923,"closestMainCity":{"city":"Montreux","zipCode":1820,"lat":46.433,"long":6.9114}},{"city":"Chailly-Montreux","zipCode":1816,"lat":46.4543,"long":6.8928,"closestMainCity":{"city":"Montreux","zipCode":1820,"lat":46.433,"long":6.9114}},{"city":"Brent","zipCode":1817,"lat":46.4593,"long":6.9032,"closestMainCity":{"city":"Montreux","zipCode":1820,"lat":46.433,"long":6.9114}},{"city":"MontreuxRedoute","zipCode":1818,"lat":46.4518,"long":6.9408,"closestMainCity":{"city":"Montreux","zipCode":1820,"lat":46.433,"long":6.9114}},{"city":"Montreux","zipCode":1820,"lat":46.433,"long":6.9114,"closestMainCity":{"city":"Montreux","zipCode":1820,"lat":46.433,"long":6.9114}},{"city":"Chernex","zipCode":1822,"lat":46.4439,"long":6.9115,"closestMainCity":{"city":"Montreux","zipCode":1820,"lat":46.433,"long":6.9114}},{"city":"Glion","zipCode":1823,"lat":46.4336,"long":6.9262,"closestMainCity":{"city":"Montreux","zipCode":1820,"lat":46.433,"long":6.9114}},{"city":"Caux","zipCode":1824,"lat":46.4324,"long":6.9386,"closestMainCity":{"city":"Montreux","zipCode":1820,"lat":46.433,"long":6.9114}},{"city":"Villard-sur-Chamby","zipCode":1832,"lat":46.4722,"long":6.929,"closestMainCity":{"city":"Montreux","zipCode":1820,"lat":46.433,"long":6.9114}},{"city":"LesAvants","zipCode":1833,"lat":46.453,"long":6.9431,"closestMainCity":{"city":"Montreux","zipCode":1820,"lat":46.433,"long":6.9114}},{"city":"VilleneuveVD","zipCode":1844,"lat":46.3987,"long":6.9265,"closestMainCity":{"city":"Montreux","zipCode":1820,"lat":46.433,"long":6.9114}},{"city":"Noville","zipCode":1845,"lat":46.3815,"long":6.9001,"closestMainCity":{"city":"Montreux","zipCode":1820,"lat":46.433,"long":6.9114}},{"city":"Chessel","zipCode":1846,"lat":46.3496,"long":6.897,"closestMainCity":{"city":"Montreux","zipCode":1820,"lat":46.433,"long":6.9114}},{"city":"Rennaz","zipCode":1847,"lat":46.3748,"long":6.916,"closestMainCity":{"city":"Montreux","zipCode":1820,"lat":46.433,"long":6.9114}},{"city":"RocheVD","zipCode":1852,"lat":46.3609,"long":6.9327,"closestMainCity":{"city":"Montreux","zipCode":1820,"lat":46.433,"long":6.9114}},{"city":"Yvorne","zipCode":1853,"lat":46.3312,"long":6.9587,"closestMainCity":{"city":"Monthey","zipCode":1870,"lat":46.2545,"long":6.9541}},{"city":"Leysin","zipCode":1854,"lat":46.3418,"long":7.0115,"closestMainCity":{"city":"Monthey","zipCode":1870,"lat":46.2545,"long":6.9541}},{"city":"Corbeyrier","zipCode":1856,"lat":46.3501,"long":6.9602,"closestMainCity":{"city":"Montreux","zipCode":1820,"lat":46.433,"long":6.9114}},{"city":"Aigle","zipCode":1860,"lat":46.3181,"long":6.9646,"closestMainCity":{"city":"Monthey","zipCode":1870,"lat":46.2545,"long":6.9541}},{"city":"LesMosses","zipCode":1862,"lat":46.3953,"long":7.1006,"closestMainCity":{"city":"Montreux","zipCode":1820,"lat":46.433,"long":6.9114}},{"city":"LeSépey","zipCode":1863,"lat":46.3614,"long":7.05,"closestMainCity":{"city":"Montreux","zipCode":1820,"lat":46.433,"long":6.9114}},{"city":"Vers-l'Eglise","zipCode":1864,"lat":46.3537,"long":7.1316,"closestMainCity":{"city":"Monthey","zipCode":1870,"lat":46.2545,"long":6.9541}},{"city":"LesDiablerets","zipCode":1865,"lat":46.35,"long":7.159,"closestMainCity":{"city":"Monthey","zipCode":1870,"lat":46.2545,"long":6.9541}},{"city":"LaForclazVD","zipCode":1866,"lat":46.3507,"long":7.0689,"closestMainCity":{"city":"Monthey","zipCode":1870,"lat":46.2545,"long":6.9541}},{"city":"Panex","zipCode":1867,"lat":46.3118,"long":7.0137,"closestMainCity":{"city":"Monthey","zipCode":1870,"lat":46.2545,"long":6.9541}},{"city":"Collombey","zipCode":1868,"lat":46.2739,"long":6.9479,"closestMainCity":{"city":"Monthey","zipCode":1870,"lat":46.2545,"long":6.9541}},{"city":"Massongex","zipCode":1869,"lat":46.2427,"long":6.9888,"closestMainCity":{"city":"Monthey","zipCode":1870,"lat":46.2545,"long":6.9541}},{"city":"Monthey","zipCode":1870,"lat":46.2545,"long":6.9541,"closestMainCity":{"city":"Monthey","zipCode":1870,"lat":46.2545,"long":6.9541}},{"city":"LesGiettes","zipCode":1871,"lat":46.2275,"long":6.9583,"closestMainCity":{"city":"Monthey","zipCode":1870,"lat":46.2545,"long":6.9541}},{"city":"Troistorrents","zipCode":1872,"lat":46.2289,"long":6.9159,"closestMainCity":{"city":"Monthey","zipCode":1870,"lat":46.2545,"long":6.9541}},{"city":"Val-d'Illiez","zipCode":1873,"lat":46.2036,"long":6.891,"closestMainCity":{"city":"Monthey","zipCode":1870,"lat":46.2545,"long":6.9541}},{"city":"Champéry","zipCode":1874,"lat":46.1754,"long":6.869,"closestMainCity":{"city":"Monthey","zipCode":1870,"lat":46.2545,"long":6.9541}},{"city":"Morgins","zipCode":1875,"lat":46.239,"long":6.852,"closestMainCity":{"city":"Monthey","zipCode":1870,"lat":46.2545,"long":6.9541}},{"city":"LesPlans-sur-Bex","zipCode":1880,"lat":46.2574,"long":7.0934,"closestMainCity":{"city":"Monthey","zipCode":1870,"lat":46.2545,"long":6.9541}},{"city":"Gryon","zipCode":1882,"lat":46.2738,"long":7.0597,"closestMainCity":{"city":"Monthey","zipCode":1870,"lat":46.2545,"long":6.9541}},{"city":"Villars-sur-Ollon","zipCode":1884,"lat":46.2983,"long":7.0563,"closestMainCity":{"city":"Monthey","zipCode":1870,"lat":46.2545,"long":6.9541}},{"city":"Chesières","zipCode":1885,"lat":46.3024,"long":7.0441,"closestMainCity":{"city":"Monthey","zipCode":1870,"lat":46.2545,"long":6.9541}},{"city":"St-Maurice","zipCode":1890,"lat":46.2183,"long":7.0032,"closestMainCity":{"city":"Monthey","zipCode":1870,"lat":46.2545,"long":6.9541}},{"city":"Vérossaz","zipCode":1891,"lat":46.2122,"long":6.9863,"closestMainCity":{"city":"Monthey","zipCode":1870,"lat":46.2545,"long":6.9541}},{"city":"Lavey-Village","zipCode":1892,"lat":46.2213,"long":7.0148,"closestMainCity":{"city":"Monthey","zipCode":1870,"lat":46.2545,"long":6.9541}},{"city":"Muraz(Collombey)","zipCode":1893,"lat":46.2842,"long":6.9334,"closestMainCity":{"city":"Monthey","zipCode":1870,"lat":46.2545,"long":6.9541}},{"city":"Vionnaz","zipCode":1895,"lat":46.311,"long":6.9006,"closestMainCity":{"city":"Monthey","zipCode":1870,"lat":46.2545,"long":6.9541}},{"city":"Vouvry","zipCode":1896,"lat":46.3375,"long":6.8895,"closestMainCity":{"city":"Monthey","zipCode":1870,"lat":46.2545,"long":6.9541}},{"city":"LesEvouettes","zipCode":1897,"lat":46.362,"long":6.8767,"closestMainCity":{"city":"Montreux","zipCode":1820,"lat":46.433,"long":6.9114}},{"city":"St-Gingolph","zipCode":1898,"lat":46.3922,"long":6.8059,"closestMainCity":{"city":"Montreux","zipCode":1820,"lat":46.433,"long":6.9114}},{"city":"Torgon","zipCode":1899,"lat":46.3195,"long":6.8753,"closestMainCity":{"city":"Monthey","zipCode":1870,"lat":46.2545,"long":6.9541}},{"city":"Evionnaz","zipCode":1902,"lat":46.181,"long":7.0223,"closestMainCity":{"city":"Martigny","zipCode":1920,"lat":46.1028,"long":7.0724}},{"city":"Collonges","zipCode":1903,"lat":46.172,"long":7.0343,"closestMainCity":{"city":"Martigny","zipCode":1920,"lat":46.1028,"long":7.0724}},{"city":"Vernayaz","zipCode":1904,"lat":46.1367,"long":7.0391,"closestMainCity":{"city":"Martigny","zipCode":1920,"lat":46.1028,"long":7.0724}},{"city":"Dorénaz","zipCode":1905,"lat":46.1489,"long":7.0429,"closestMainCity":{"city":"Martigny","zipCode":1920,"lat":46.1028,"long":7.0724}},{"city":"Charrat","zipCode":1906,"lat":46.1249,"long":7.1314,"closestMainCity":{"city":"Martigny","zipCode":1920,"lat":46.1028,"long":7.0724}},{"city":"Saxon","zipCode":1907,"lat":46.1494,"long":7.1751,"closestMainCity":{"city":"Martigny","zipCode":1920,"lat":46.1028,"long":7.0724}},{"city":"Riddes","zipCode":1908,"lat":46.1728,"long":7.2236,"closestMainCity":{"city":"Sion","zipCode":1950,"lat":46.2274,"long":7.3556}},{"city":"Mayens-de-Chamoson","zipCode":1911,"lat":46.2034,"long":7.1843,"closestMainCity":{"city":"Sion","zipCode":1950,"lat":46.2274,"long":7.3556}},{"city":"Produit(Leytron)","zipCode":1912,"lat":46.1858,"long":7.1942,"closestMainCity":{"city":"Martigny","zipCode":1920,"lat":46.1028,"long":7.0724}},{"city":"Saillon","zipCode":1913,"lat":46.1703,"long":7.1877,"closestMainCity":{"city":"Martigny","zipCode":1920,"lat":46.1028,"long":7.0724}},{"city":"Isérables","zipCode":1914,"lat":46.1623,"long":7.2447,"closestMainCity":{"city":"Sion","zipCode":1950,"lat":46.2274,"long":7.3556}},{"city":"LaTzoumaz","zipCode":1918,"lat":46.1448,"long":7.233,"closestMainCity":{"city":"Sion","zipCode":1950,"lat":46.2274,"long":7.3556}},{"city":"MartignyMutuel","zipCode":1919,"lat":46.1072,"long":7.081,"closestMainCity":{"city":"Martigny","zipCode":1920,"lat":46.1028,"long":7.0724}},{"city":"Martigny","zipCode":1920,"lat":46.1028,"long":7.0724,"closestMainCity":{"city":"Martigny","zipCode":1920,"lat":46.1028,"long":7.0724}},{"city":"Martigny-Croix","zipCode":1921,"lat":46.086,"long":7.0513,"closestMainCity":{"city":"Martigny","zipCode":1920,"lat":46.1028,"long":7.0724}},{"city":"Salvan","zipCode":1922,"lat":46.1189,"long":7.0208,"closestMainCity":{"city":"Martigny","zipCode":1920,"lat":46.1028,"long":7.0724}},{"city":"LeTrétien","zipCode":1923,"lat":46.1022,"long":6.9993,"closestMainCity":{"city":"Martigny","zipCode":1920,"lat":46.1028,"long":7.0724}},{"city":"Finhaut","zipCode":1925,"lat":46.0838,"long":6.9778,"closestMainCity":{"city":"Martigny","zipCode":1920,"lat":46.1028,"long":7.0724}},{"city":"Fully","zipCode":1926,"lat":46.1385,"long":7.1147,"closestMainCity":{"city":"Martigny","zipCode":1920,"lat":46.1028,"long":7.0724}},{"city":"Chemin","zipCode":1927,"lat":46.0895,"long":7.0963,"closestMainCity":{"city":"Martigny","zipCode":1920,"lat":46.1028,"long":7.0724}},{"city":"Ravoire","zipCode":1928,"lat":46.1007,"long":7.0458,"closestMainCity":{"city":"Martigny","zipCode":1920,"lat":46.1028,"long":7.0724}},{"city":"Trient","zipCode":1929,"lat":46.058,"long":6.994,"closestMainCity":{"city":"Martigny","zipCode":1920,"lat":46.1028,"long":7.0724}},{"city":"Bovernier","zipCode":1932,"lat":46.079,"long":7.0858,"closestMainCity":{"city":"Martigny","zipCode":1920,"lat":46.1028,"long":7.0724}},{"city":"Vens(Sembrancher)","zipCode":1933,"lat":46.0959,"long":7.1535,"closestMainCity":{"city":"Martigny","zipCode":1920,"lat":46.1028,"long":7.0724}},{"city":"Bruson","zipCode":1934,"lat":46.066,"long":7.2183,"closestMainCity":{"city":"Martigny","zipCode":1920,"lat":46.1028,"long":7.0724}},{"city":"Verbier","zipCode":1936,"lat":46.1002,"long":7.2265,"closestMainCity":{"city":"Martigny","zipCode":1920,"lat":46.1028,"long":7.0724}},{"city":"Orsières","zipCode":1937,"lat":46.029,"long":7.1444,"closestMainCity":{"city":"Martigny","zipCode":1920,"lat":46.1028,"long":7.0724}},{"city":"Champex-Lac","zipCode":1938,"lat":45.9723,"long":7.1015,"closestMainCity":{"city":"Martigny","zipCode":1920,"lat":46.1028,"long":7.0724}},{"city":"Cries(Vollèges)","zipCode":1941,"lat":46.092,"long":7.1755,"closestMainCity":{"city":"Martigny","zipCode":1920,"lat":46.1028,"long":7.0724}},{"city":"Levron","zipCode":1942,"lat":46.1002,"long":7.1638,"closestMainCity":{"city":"Martigny","zipCode":1920,"lat":46.1028,"long":7.0724}},{"city":"Praz-de-Fort","zipCode":1943,"lat":45.9878,"long":7.1226,"closestMainCity":{"city":"Martigny","zipCode":1920,"lat":46.1028,"long":7.0724}},{"city":"LaFoulyVS","zipCode":1944,"lat":45.9336,"long":7.0977,"closestMainCity":{"city":"Martigny","zipCode":1920,"lat":46.1028,"long":7.0724}},{"city":"Liddes","zipCode":1945,"lat":45.9925,"long":7.1873,"closestMainCity":{"city":"Martigny","zipCode":1920,"lat":46.1028,"long":7.0724}},{"city":"Bourg-St-Pierre","zipCode":1946,"lat":45.9488,"long":7.2077,"closestMainCity":{"city":"Martigny","zipCode":1920,"lat":46.1028,"long":7.0724}},{"city":"Champsec","zipCode":1947,"lat":46.0581,"long":7.243,"closestMainCity":{"city":"Martigny","zipCode":1920,"lat":46.1028,"long":7.0724}},{"city":"Lourtier","zipCode":1948,"lat":46.0488,"long":7.2668,"closestMainCity":{"city":"Martigny","zipCode":1920,"lat":46.1028,"long":7.0724}},{"city":"Sion","zipCode":1950,"lat":46.2274,"long":7.3556,"closestMainCity":{"city":"Sion","zipCode":1950,"lat":46.2274,"long":7.3556}},{"city":"Sion","zipCode":1951,"lat":46.2304,"long":7.3661,"closestMainCity":{"city":"Sion","zipCode":1950,"lat":46.2274,"long":7.3556}},{"city":"Némiaz(Chamoson)","zipCode":1955,"lat":46.2123,"long":7.2235,"closestMainCity":{"city":"Sion","zipCode":1950,"lat":46.2274,"long":7.3556}},{"city":"Ardon","zipCode":1957,"lat":46.2095,"long":7.2601,"closestMainCity":{"city":"Sion","zipCode":1950,"lat":46.2274,"long":7.3556}},{"city":"St-Léonard","zipCode":1958,"lat":46.2515,"long":7.4171,"closestMainCity":{"city":"Sion","zipCode":1950,"lat":46.2274,"long":7.3556}},{"city":"Vernamiège","zipCode":1961,"lat":46.2117,"long":7.4313,"closestMainCity":{"city":"Sion","zipCode":1950,"lat":46.2274,"long":7.3556}},{"city":"Pont-de-la-Morge(Sion)","zipCode":1962,"lat":46.226,"long":7.3139,"closestMainCity":{"city":"Sion","zipCode":1950,"lat":46.2274,"long":7.3556}},{"city":"Vétroz","zipCode":1963,"lat":46.2217,"long":7.2786,"closestMainCity":{"city":"Sion","zipCode":1950,"lat":46.2274,"long":7.3556}},{"city":"Conthey","zipCode":1964,"lat":46.2237,"long":7.3028,"closestMainCity":{"city":"Sion","zipCode":1950,"lat":46.2274,"long":7.3556}},{"city":"Mayens-de-la-Zour(Savièse)","zipCode":1965,"lat":46.2698,"long":7.3569,"closestMainCity":{"city":"Sion","zipCode":1950,"lat":46.2274,"long":7.3556}},{"city":"Botyre(Ayent)","zipCode":1966,"lat":46.2753,"long":7.406,"closestMainCity":{"city":"Sion","zipCode":1950,"lat":46.2274,"long":7.3556}},{"city":"Bramois","zipCode":1967,"lat":46.2324,"long":7.4007,"closestMainCity":{"city":"Sion","zipCode":1950,"lat":46.2274,"long":7.3556}},{"city":"Mase","zipCode":1968,"lat":46.1952,"long":7.4347,"closestMainCity":{"city":"Sion","zipCode":1950,"lat":46.2274,"long":7.3556}},{"city":"Liez(St-Martin)","zipCode":1969,"lat":46.1615,"long":7.451,"closestMainCity":{"city":"Sion","zipCode":1950,"lat":46.2274,"long":7.3556}},{"city":"Grimisuat","zipCode":1971,"lat":46.2594,"long":7.3841,"closestMainCity":{"city":"Sion","zipCode":1950,"lat":46.2274,"long":7.3556}},{"city":"Anzère","zipCode":1972,"lat":46.2956,"long":7.3962,"closestMainCity":{"city":"Sion","zipCode":1950,"lat":46.2274,"long":7.3556}},{"city":"Nax","zipCode":1973,"lat":46.2282,"long":7.431,"closestMainCity":{"city":"Sion","zipCode":1950,"lat":46.2274,"long":7.3556}},{"city":"Arbaz","zipCode":1974,"lat":46.2781,"long":7.3854,"closestMainCity":{"city":"Sion","zipCode":1950,"lat":46.2274,"long":7.3556}},{"city":"St-Séverin","zipCode":1975,"lat":46.2349,"long":7.3007,"closestMainCity":{"city":"Sion","zipCode":1950,"lat":46.2274,"long":7.3556}},{"city":"Aven","zipCode":1976,"lat":46.2376,"long":7.2731,"closestMainCity":{"city":"Sion","zipCode":1950,"lat":46.2274,"long":7.3556}},{"city":"Icogne","zipCode":1977,"lat":46.2919,"long":7.4405,"closestMainCity":{"city":"Sierre","zipCode":3960,"lat":46.2919,"long":7.5356}},{"city":"Lens","zipCode":1978,"lat":46.283,"long":7.4498,"closestMainCity":{"city":"Sierre","zipCode":3960,"lat":46.2919,"long":7.5356}},{"city":"Vex","zipCode":1981,"lat":46.2124,"long":7.3983,"closestMainCity":{"city":"Sion","zipCode":1950,"lat":46.2274,"long":7.3556}},{"city":"Euseigne","zipCode":1982,"lat":46.1721,"long":7.4231,"closestMainCity":{"city":"Sion","zipCode":1950,"lat":46.2274,"long":7.3556}},{"city":"Lanna","zipCode":1983,"lat":46.1333,"long":7.4833,"closestMainCity":{"city":"Sion","zipCode":1950,"lat":46.2274,"long":7.3556}},{"city":"LaTourVS","zipCode":1984,"lat":46.0982,"long":7.5057,"closestMainCity":{"city":"Sion","zipCode":1950,"lat":46.2274,"long":7.3556}},{"city":"LaSage","zipCode":1985,"lat":46.0997,"long":7.516,"closestMainCity":{"city":"Sion","zipCode":1950,"lat":46.2274,"long":7.3556}},{"city":"Arolla","zipCode":1986,"lat":46.0254,"long":7.4836,"closestMainCity":{"city":"Sion","zipCode":1950,"lat":46.2274,"long":7.3556}},{"city":"Hérémence","zipCode":1987,"lat":46.1803,"long":7.4048,"closestMainCity":{"city":"Sion","zipCode":1950,"lat":46.2274,"long":7.3556}},{"city":"LesCollons","zipCode":1988,"lat":46.1818,"long":7.3864,"closestMainCity":{"city":"Sion","zipCode":1950,"lat":46.2274,"long":7.3556}},{"city":"Turin(Salins)","zipCode":1991,"lat":46.2155,"long":7.3541,"closestMainCity":{"city":"Sion","zipCode":1950,"lat":46.2274,"long":7.3556}},{"city":"LesMayens-de-Sion","zipCode":1992,"lat":46.2857,"long":7.3361,"closestMainCity":{"city":"Sion","zipCode":1950,"lat":46.2274,"long":7.3556}},{"city":"Clèbes(Nendaz)","zipCode":1993,"lat":46.1875,"long":7.3375,"closestMainCity":{"city":"Sion","zipCode":1950,"lat":46.2274,"long":7.3556}},{"city":"Aproz(Nendaz)","zipCode":1994,"lat":46.2055,"long":7.3108,"closestMainCity":{"city":"Sion","zipCode":1950,"lat":46.2274,"long":7.3556}},{"city":"Baar(Nendaz)","zipCode":1996,"lat":46.2057,"long":7.3321,"closestMainCity":{"city":"Sion","zipCode":1950,"lat":46.2274,"long":7.3556}},{"city":"Siviez(Nendaz)","zipCode":1997,"lat":46.1366,"long":7.316,"closestMainCity":{"city":"Sion","zipCode":1950,"lat":46.2274,"long":7.3556}},{"city":"Neuchâtel","zipCode":2000,"lat":46.9918,"long":6.931,"closestMainCity":{"city":"Neuchâtel","zipCode":2000,"lat":46.9918,"long":6.931}},{"city":"Neuchâtel","zipCode":2001,"lat":47.0094,"long":6.9381,"closestMainCity":{"city":"Neuchâtel","zipCode":2000,"lat":46.9918,"long":6.931}},{"city":"Neuchâtel","zipCode":2002,"lat":47.0094,"long":6.9381,"closestMainCity":{"city":"Neuchâtel","zipCode":2000,"lat":46.9918,"long":6.931}},{"city":"NeuchâtelOFS","zipCode":2010,"lat":47.0094,"long":6.9381,"closestMainCity":{"city":"Neuchâtel","zipCode":2000,"lat":46.9918,"long":6.931}},{"city":"Auvernier","zipCode":2012,"lat":46.9755,"long":6.879,"closestMainCity":{"city":"Neuchâtel","zipCode":2000,"lat":46.9918,"long":6.931}},{"city":"ColombierNE","zipCode":2013,"lat":46.9663,"long":6.8648,"closestMainCity":{"city":"Neuchâtel","zipCode":2000,"lat":46.9918,"long":6.931}},{"city":"Bôle","zipCode":2014,"lat":46.966,"long":6.842,"closestMainCity":{"city":"Neuchâtel","zipCode":2000,"lat":46.9918,"long":6.931}},{"city":"Areuse","zipCode":2015,"lat":46.9535,"long":6.8538,"closestMainCity":{"city":"Neuchâtel","zipCode":2000,"lat":46.9918,"long":6.931}},{"city":"Cortaillod","zipCode":2016,"lat":46.9431,"long":6.8444,"closestMainCity":{"city":"Neuchâtel","zipCode":2000,"lat":46.9918,"long":6.931}},{"city":"Boudry","zipCode":2017,"lat":46.9499,"long":6.8376,"closestMainCity":{"city":"Neuchâtel","zipCode":2000,"lat":46.9918,"long":6.931}},{"city":"Chambrelien","zipCode":2019,"lat":46.9723,"long":6.8158,"closestMainCity":{"city":"Neuchâtel","zipCode":2000,"lat":46.9918,"long":6.931}},{"city":"Bevaix","zipCode":2022,"lat":46.9296,"long":6.8147,"closestMainCity":{"city":"Neuchâtel","zipCode":2000,"lat":46.9918,"long":6.931}},{"city":"Gorgier","zipCode":2023,"lat":46.9014,"long":6.7799,"closestMainCity":{"city":"Neuchâtel","zipCode":2000,"lat":46.9918,"long":6.931}},{"city":"St-Aubin-Sauges","zipCode":2024,"lat":46.8942,"long":6.7725,"closestMainCity":{"city":"Neuchâtel","zipCode":2000,"lat":46.9918,"long":6.931}},{"city":"Chez-le-Bart","zipCode":2025,"lat":46.9021,"long":6.7857,"closestMainCity":{"city":"Neuchâtel","zipCode":2000,"lat":46.9918,"long":6.931}},{"city":"Fresens","zipCode":2027,"lat":46.8886,"long":6.7478,"closestMainCity":{"city":"Yverdon-les-Bains","zipCode":1400,"lat":46.7785,"long":6.6411}},{"city":"Vaumarcus","zipCode":2028,"lat":46.8791,"long":6.7573,"closestMainCity":{"city":"Yverdon-les-Bains","zipCode":1400,"lat":46.7785,"long":6.6411}},{"city":"Peseux","zipCode":2034,"lat":46.987,"long":6.889,"closestMainCity":{"city":"Neuchâtel","zipCode":2000,"lat":46.9918,"long":6.931}},{"city":"CorcellesNE","zipCode":2035,"lat":46.9864,"long":6.8775,"closestMainCity":{"city":"Neuchâtel","zipCode":2000,"lat":46.9918,"long":6.931}},{"city":"Cormondrèche","zipCode":2036,"lat":46.9864,"long":6.8775,"closestMainCity":{"city":"Neuchâtel","zipCode":2000,"lat":46.9918,"long":6.931}},{"city":"Montezillon","zipCode":2037,"lat":46.9866,"long":6.8366,"closestMainCity":{"city":"Neuchâtel","zipCode":2000,"lat":46.9918,"long":6.931}},{"city":"Valangin","zipCode":2042,"lat":47.0161,"long":6.9067,"closestMainCity":{"city":"Neuchâtel","zipCode":2000,"lat":46.9918,"long":6.931}},{"city":"Boudevilliers","zipCode":2043,"lat":47.0272,"long":6.8891,"closestMainCity":{"city":"Neuchâtel","zipCode":2000,"lat":46.9918,"long":6.931}},{"city":"FontainesNE","zipCode":2046,"lat":47.0436,"long":6.9035,"closestMainCity":{"city":"Neuchâtel","zipCode":2000,"lat":46.9918,"long":6.931}},{"city":"Fontainemelon","zipCode":2052,"lat":47.0549,"long":6.8868,"closestMainCity":{"city":"LaChaux-de-Fonds","zipCode":2300,"lat":47.0999,"long":6.8259}},{"city":"Cernier","zipCode":2053,"lat":47.0588,"long":6.9004,"closestMainCity":{"city":"LaChaux-de-Fonds","zipCode":2300,"lat":47.0999,"long":6.8259}},{"city":"LesVieux-Prés","zipCode":2054,"lat":47.0721,"long":6.9293,"closestMainCity":{"city":"LaChaux-de-Fonds","zipCode":2300,"lat":47.0999,"long":6.8259}},{"city":"Dombresson","zipCode":2056,"lat":47.0719,"long":6.9592,"closestMainCity":{"city":"Neuchâtel","zipCode":2000,"lat":46.9918,"long":6.931}},{"city":"Villiers","zipCode":2057,"lat":47.0751,"long":6.9715,"closestMainCity":{"city":"Neuchâtel","zipCode":2000,"lat":46.9918,"long":6.931}},{"city":"LePâquierNE","zipCode":2058,"lat":47.0984,"long":6.9864,"closestMainCity":{"city":"LaChaux-de-Fonds","zipCode":2300,"lat":47.0999,"long":6.8259}},{"city":"VilarsNE","zipCode":2063,"lat":47.033,"long":6.9278,"closestMainCity":{"city":"Neuchâtel","zipCode":2000,"lat":46.9918,"long":6.931}},{"city":"Savagnier","zipCode":2065,"lat":47.05,"long":6.95,"closestMainCity":{"city":"Neuchâtel","zipCode":2000,"lat":46.9918,"long":6.931}},{"city":"Chaumont","zipCode":2067,"lat":47.0282,"long":6.9562,"closestMainCity":{"city":"Neuchâtel","zipCode":2000,"lat":46.9918,"long":6.931}},{"city":"HauteriveNE","zipCode":2068,"lat":47.0123,"long":6.9761,"closestMainCity":{"city":"Neuchâtel","zipCode":2000,"lat":46.9918,"long":6.931}},{"city":"St-Blaise","zipCode":2072,"lat":47.0151,"long":6.9883,"closestMainCity":{"city":"Neuchâtel","zipCode":2000,"lat":46.9918,"long":6.931}},{"city":"Enges","zipCode":2073,"lat":47.0667,"long":7.0166,"closestMainCity":{"city":"Neuchâtel","zipCode":2000,"lat":46.9918,"long":6.931}},{"city":"Marin-Epagnier","zipCode":2074,"lat":47.0102,"long":6.9994,"closestMainCity":{"city":"Neuchâtel","zipCode":2000,"lat":46.9918,"long":6.931}},{"city":"Wavre","zipCode":2075,"lat":47.0215,"long":7.0292,"closestMainCity":{"city":"Neuchâtel","zipCode":2000,"lat":46.9918,"long":6.931}},{"city":"CornauxNE","zipCode":2087,"lat":47.0396,"long":7.0187,"closestMainCity":{"city":"Neuchâtel","zipCode":2000,"lat":46.9918,"long":6.931}},{"city":"CressierNE","zipCode":2088,"lat":47.0491,"long":7.0346,"closestMainCity":{"city":"Neuchâtel","zipCode":2000,"lat":46.9918,"long":6.931}},{"city":"Noiraigue","zipCode":2103,"lat":46.9562,"long":6.7246,"closestMainCity":{"city":"Neuchâtel","zipCode":2000,"lat":46.9918,"long":6.931}},{"city":"Travers","zipCode":2105,"lat":46.9402,"long":6.676,"closestMainCity":{"city":"Yverdon-les-Bains","zipCode":1400,"lat":46.7785,"long":6.6411}},{"city":"Couvet","zipCode":2108,"lat":46.9253,"long":6.6327,"closestMainCity":{"city":"Yverdon-les-Bains","zipCode":1400,"lat":46.7785,"long":6.6411}},{"city":"MôtiersNE","zipCode":2112,"lat":46.9111,"long":6.6111,"closestMainCity":{"city":"Yverdon-les-Bains","zipCode":1400,"lat":46.7785,"long":6.6411}},