{"1000":{"city":"Lausanne","zipCode":1000,"lat":46.5182,"long":6.6329,"closestMainCity":{"city":"Lausanne","zipCode":1001,"lat":46.5218,"long":6.633}},"1001":{"city":"Lausanne","zipCode":1001,"lat":46.5218,"long":6.633,"closestMainCity":{"city":"Lausanne","zipCode":1001,"lat":46.5218,"long":6.633}},"1002":{"city":"Lausanne","zipCode":1002,"lat":46.5218,"long":6.633,"closestMainCity":{"city":"Lausanne","zipCode":1001,"lat":46.5218,"long":6.633}},"1003":{"city":"Lausanne","zipCode":1003,"lat":46.516,"long":6.6328,"closestMainCity":{"city":"Lausanne","zipCode":1001,"lat":46.5218,"long":6.633}},"1004":{"city":"Lausanne","zipCode":1004,"lat":46.516,"long":6.6328,"closestMainCity":{"city":"Lausanne","zipCode":1001,"lat":46.5218,"long":6.633}},"1005":{"city":"Lausanne","zipCode":1005,"lat":46.516,"long":6.6328,"closestMainCity":{"city":"Lausanne","zipCode":1001,"lat":46.5218,"long":6.633}},"1006":{"city":"Lausanne","zipCode":1006,"lat":46.516,"long":6.6328,"closestMainCity":{"city":"Lausanne","zipCode":1001,"lat":46.5218,"long":6.633}},"1007":{"city":"Lausanne","zipCode":1007,"lat":46.516,"long":6.6328,"closestMainCity":{"city":"Lausanne","zipCode":1001,"lat":46.5218,"long":6.633}},"1008":{"city":"Jouxtens-Mézery","zipCode":1008,"lat":46.5556,"long":6.6437,"closestMainCity":{"city":"Lausanne","zipCode":1001,"lat":46.5218,"long":6.633}},"1009":{"city":"Pully","zipCode":1009,"lat":46.5103,"long":6.6618,"closestMainCity":{"city":"Lausanne","zipCode":1001,"lat":46.5218,"long":6.633}},"1010":{"city":"Lausanne","zipCode":1010,"lat":46.516,"long":6.6328,"closestMainCity":{"city":"Lausanne","zipCode":1001,"lat":46.5218,"long":6.633}},"1011":{"city":"Lausanne","zipCode":1011,"lat":46.516,"long":6.6328,"closestMainCity":{"city":"Lausanne","zipCode":1001,"lat":46.5218,"long":6.633}},"1012":{"city":"Lausanne","zipCode":1012,"lat":46.516,"long":6.6328,"closestMainCity":{"city":"Lausanne","zipCode":1001,"lat":46.5218,"long":6.633}},"1014":{"city":"Lausanne Adm cant","zipCode":1014,"lat":46.5218,"long":6.633,"closestMainCity":{"city":"Lausanne","zipCode":1001,"lat":46.5218,"long":6.633}},"1015":{"city":"Lausanne","zipCode":1015,"lat":46.516,"long":6.6328,"closestMainCity":{"city":"Lausanne","zipCode":1001,"lat":46.5218,"long":6.633}},"1017":{"city":"Lausanne Veillon","zipCode":1017,"lat":46.5218,"long":6.633,"closestMainCity":{"city":"Lausanne","zipCode":1001,"lat":46.5218,"long":6.633}},"1018":{"city":"Lausanne","zipCode":1018,"lat":46.516,"long":6.6328,"closestMainCity":{"city":"Lausanne","zipCode":1001,"lat":46.5218,"long":6.633}},"1019":{"city":"Lausanne","zipCode":1019,"lat":46.5218,"long":6.633,"closestMainCity":{"city":"Lausanne","zipCode":1001,"lat":46.5218,"long":6.633}},"1020":{"city":"Renens VD","zipCode":1020,"lat":46.5399,"long":6.5881,"closestMainCity":{"city":"Lausanne","zipCode":1001,"lat":46.5218,"long":6.633}},"1022":{"city":"Chavannes-près-Renens","zipCode":1022,"lat":46.5301,"long":6.5707,"closestMainCity":{"city":"Lausanne","zipCode":1001,"lat":46.5218,"long":6.633}},"1023":{"city":"Crissier","zipCode":1023,"lat":46.5459,"long":6.5757,"closestMainCity":{"city":"Lausanne","zipCode":1001,"lat":46.5218,"long":6.633}},"1024":{"city":"Ecublens VD","zipCode":1024,"lat":46.529,"long":6.5626,"closestMainCity":{"city":"Morges","zipCode":1110,"lat":46.5113,"long":6.4985}},"1025":{"city":"St-Sulpice VD","zipCode":1025,"lat":46.5105,"long":6.559,"closestMainCity":{"city":"Morges","zipCode":1110,"lat":46.5113,"long":6.4985}},"1026":{"city":"Denges","zipCode":1026,"lat":46.522,"long":6.5393,"closestMainCity":{"city":"Morges","zipCode":1110,"lat":46.5113,"long":6.4985}},"1027":{"city":"Lonay","zipCode":1027,"lat":46.5288,"long":6.5194,"closestMainCity":{"city":"Morges","zipCode":1110,"lat":46.5113,"long":6.4985}},"1028":{"city":"Préverenges","zipCode":1028,"lat":46.5185,"long":6.5268,"closestMainCity":{"city":"Morges","zipCode":1110,"lat":46.5113,"long":6.4985}},"1029":{"city":"Villars-Ste-Croix","zipCode":1029,"lat":46.5656,"long":6.5633,"closestMainCity":{"city":"Lausanne","zipCode":1001,"lat":46.5218,"long":6.633}},"1030":{"city":"Bussigny","zipCode":1030,"lat":46.5511,"long":6.556,"closestMainCity":{"city":"Morges","zipCode":1110,"lat":46.5113,"long":6.4985}},"1031":{"city":"Mex VD","zipCode":1031,"lat":46.5759,"long":6.5545,"closestMainCity":{"city":"Morges","zipCode":1110,"lat":46.5113,"long":6.4985}},"1032":{"city":"Romanel-sur-Lausanne","zipCode":1032,"lat":46.564,"long":6.6054,"closestMainCity":{"city":"Lausanne","zipCode":1001,"lat":46.5218,"long":6.633}},"1033":{"city":"Cheseaux-sur-Lausanne","zipCode":1033,"lat":46.5862,"long":6.6059,"closestMainCity":{"city":"Lausanne","zipCode":1001,"lat":46.5218,"long":6.633}},"1034":{"city":"Boussens","zipCode":1034,"lat":46.6033,"long":6.586,"closestMainCity":{"city":"Lausanne","zipCode":1001,"lat":46.5218,"long":6.633}},"1035":{"city":"Bournens","zipCode":1035,"lat":46.6049,"long":6.5648,"closestMainCity":{"city":"Lausanne","zipCode":1001,"lat":46.5218,"long":6.633}},"1036":{"city":"Sullens","zipCode":1036,"lat":46.5956,"long":6.5669,"closestMainCity":{"city":"Lausanne","zipCode":1001,"lat":46.5218,"long":6.633}},"1037":{"city":"Etagnières","zipCode":1037,"lat":46.6015,"long":6.6065,"closestMainCity":{"city":"Lausanne","zipCode":1001,"lat":46.5218,"long":6.633}},"1038":{"city":"Bercher","zipCode":1038,"lat":46.6914,"long":6.7076,"closestMainCity":{"city":"Yverdon-les-Bains","zipCode":1400,"lat":46.7785,"long":6.6411}},"1039":{"city":"Cheseaux Polyval","zipCode":1039,"lat":46.5845,"long":6.5955,"closestMainCity":{"city":"Lausanne","zipCode":1001,"lat":46.5218,"long":6.633}},"1040":{"city":"Villars-le-Terroir","zipCode":1040,"lat":46.6582,"long":6.6439,"closestMainCity":{"city":"Yverdon-les-Bains","zipCode":1400,"lat":46.7785,"long":6.6411}},"1041":{"city":"Naz","zipCode":1041,"lat":46.6588,"long":6.694,"closestMainCity":{"city":"Yverdon-les-Bains","zipCode":1400,"lat":46.7785,"long":6.6411}},"1042":{"city":"Bettens","zipCode":1042,"lat":46.6283,"long":6.5734,"closestMainCity":{"city":"Lausanne","zipCode":1001,"lat":46.5218,"long":6.633}},"1043":{"city":"Sugnens","zipCode":1043,"lat":46.6551,"long":6.6714,"closestMainCity":{"city":"Yverdon-les-Bains","zipCode":1400,"lat":46.7785,"long":6.6411}},"1044":{"city":"Fey","zipCode":1044,"lat":46.6729,"long":6.6801,"closestMainCity":{"city":"Yverdon-les-Bains","zipCode":1400,"lat":46.7785,"long":6.6411}},"1045":{"city":"Ogens","zipCode":1045,"lat":46.7084,"long":6.7245,"closestMainCity":{"city":"Yverdon-les-Bains","zipCode":1400,"lat":46.7785,"long":6.6411}},"1046":{"city":"Rueyres","zipCode":1046,"lat":46.6934,"long":6.6921,"closestMainCity":{"city":"Yverdon-les-Bains","zipCode":1400,"lat":46.7785,"long":6.6411}},"1047":{"city":"Oppens","zipCode":1047,"lat":46.714,"long":6.6917,"closestMainCity":{"city":"Yverdon-les-Bains","zipCode":1400,"lat":46.7785,"long":6.6411}},"1052":{"city":"Le Mont-sur-Lausanne","zipCode":1052,"lat":46.5582,"long":6.6315,"closestMainCity":{"city":"Lausanne","zipCode":1001,"lat":46.5218,"long":6.633}},"1053":{"city":"Bretigny-sur-Morrens","zipCode":1053,"lat":46.5998,"long":6.6431,"closestMainCity":{"city":"Lausanne","zipCode":1001,"lat":46.5218,"long":6.633}},"1054":{"city":"Morrens VD","zipCode":1054,"lat":46.5909,"long":6.6223,"closestMainCity":{"city":"Lausanne","zipCode":1001,"lat":46.5218,"long":6.633}},"1055":{"city":"Froideville","zipCode":1055,"lat":46.6012,"long":6.6809,"closestMainCity":{"city":"Lausanne","zipCode":1001,"lat":46.5218,"long":6.633}},"1058":{"city":"Villars-Tiercelin","zipCode":1058,"lat":46.6251,"long":6.7038,"closestMainCity":{"city":"Lausanne","zipCode":1001,"lat":46.5218,"long":6.633}},"1059":{"city":"Peney-le-Jorat","zipCode":1059,"lat":46.6323,"long":6.7288,"closestMainCity":{"city":"Lausanne","zipCode":1001,"lat":46.5218,"long":6.633}},"1061":{"city":"Villars-Mendraz","zipCode":1061,"lat":46.6459,"long":6.7296,"closestMainCity":{"city":"Lausanne","zipCode":1001,"lat":46.5218,"long":6.633}},"1062":{"city":"Sottens","zipCode":1062,"lat":46.6552,"long":6.742,"closestMainCity":{"city":"Yverdon-les-Bains","zipCode":1400,"lat":46.7785,"long":6.6411}},"1063":{"city":"Boulens","zipCode":1063,"lat":46.6789,"long":6.7183,"closestMainCity":{"city":"Yverdon-les-Bains","zipCode":1400,"lat":46.7785,"long":6.6411}},"1066":{"city":"Epalinges","zipCode":1066,"lat":46.549,"long":6.6683,"closestMainCity":{"city":"Lausanne","zipCode":1001,"lat":46.5218,"long":6.633}},"1068":{"city":"Les Monts-de-Pully","zipCode":1068,"lat":46.5373,"long":6.6876,"closestMainCity":{"city":"Lausanne","zipCode":1001,"lat":46.5218,"long":6.633}},"1070":{"city":"Puidoux","zipCode":1070,"lat":46.5009,"long":6.7825,"closestMainCity":{"city":"Lausanne","zipCode":1001,"lat":46.5218,"long":6.633}},"1071":{"city":"Rivaz","zipCode":1071,"lat":46.4763,"long":6.7788,"closestMainCity":{"city":"Montreux","zipCode":1820,"lat":46.433,"long":6.9114}},"1072":{"city":"Forel (Lavaux)","zipCode":1072,"lat":46.5379,"long":6.7629,"closestMainCity":{"city":"Lausanne","zipCode":1001,"lat":46.5218,"long":6.633}},"1073":{"city":"Savigny","zipCode":1073,"lat":46.5384,"long":6.7322,"closestMainCity":{"city":"Lausanne","zipCode":1001,"lat":46.5218,"long":6.633}},"1076":{"city":"Ferlens VD","zipCode":1076,"lat":46.5881,"long":6.7808,"closestMainCity":{"city":"Lausanne","zipCode":1001,"lat":46.5218,"long":6.633}},"1077":{"city":"Servion","zipCode":1077,"lat":46.5731,"long":6.7494,"closestMainCity":{"city":"Lausanne","zipCode":1001,"lat":46.5218,"long":6.633}},"1078":{"city":"Essertes","zipCode":1078,"lat":46.5619,"long":6.7864,"closestMainCity":{"city":"Lausanne","zipCode":1001,"lat":46.5218,"long":6.633}},"1080":{"city":"Les Cullayes","zipCode":1080,"lat":46.5731,"long":6.7494,"closestMainCity":{"city":"Lausanne","zipCode":1001,"lat":46.5218,"long":6.633}},"1081":{"city":"Montpreveyres","zipCode":1081,"lat":46.5826,"long":6.7411,"closestMainCity":{"city":"Lausanne","zipCode":1001,"lat":46.5218,"long":6.633}},"1082":{"city":"Corcelles-le-Jorat","zipCode":1082,"lat":46.6013,"long":6.7309,"closestMainCity":{"city":"Lausanne","zipCode":1001,"lat":46.5218,"long":6.633}},"1083":{"city":"Mézières VD","zipCode":1083,"lat":46.5915,"long":6.7657,"closestMainCity":{"city":"Lausanne","zipCode":1001,"lat":46.5218,"long":6.633}},"1084":{"city":"Carrouge VD","zipCode":1084,"lat":46.5377,"long":6.7677,"closestMainCity":{"city":"Lausanne","zipCode":1001,"lat":46.5218,"long":6.633}},"1085":{"city":"Vulliens","zipCode":1085,"lat":46.6225,"long":6.7935,"closestMainCity":{"city":"Lausanne","zipCode":1001,"lat":46.5218,"long":6.633}},"1088":{"city":"Ropraz","zipCode":1088,"lat":46.6146,"long":6.7535,"closestMainCity":{"city":"Lausanne","zipCode":1001,"lat":46.5218,"long":6.633}},"1090":{"city":"La Croix (Lutry)","zipCode":1090,"lat":46.5179,"long":6.7036,"closestMainCity":{"city":"Lausanne","zipCode":1001,"lat":46.5218,"long":6.633}},"1091":{"city":"Aran","zipCode":1091,"lat":46.4993,"long":6.7104,"closestMainCity":{"city":"Lausanne","zipCode":1001,"lat":46.5218,"long":6.633}},"1092":{"city":"Belmont-sur-Lausanne","zipCode":1092,"lat":46.5189,"long":6.6764,"closestMainCity":{"city":"Lausanne","zipCode":1001,"lat":46.5218,"long":6.633}},"1093":{"city":"La Conversion","zipCode":1093,"lat":46.5128,"long":6.6774,"closestMainCity":{"city":"Lausanne","zipCode":1001,"lat":46.5218,"long":6.633}},"1094":{"city":"Paudex","zipCode":1094,"lat":46.5055,"long":6.6682,"closestMainCity":{"city":"Lausanne","zipCode":1001,"lat":46.5218,"long":6.633}},"1095":{"city":"Lutry","zipCode":1095,"lat":46.5024,"long":6.6865,"closestMainCity":{"city":"Lausanne","zipCode":1001,"lat":46.5218,"long":6.633}},"1096":{"city":"Villette (Lavaux)","zipCode":1096,"lat":46.4957,"long":6.709,"closestMainCity":{"city":"Lausanne","zipCode":1001,"lat":46.5218,"long":6.633}},"1097":{"city":"Riex","zipCode":1097,"lat":46.4935,"long":6.7356,"closestMainCity":{"city":"Lausanne","zipCode":1001,"lat":46.5218,"long":6.633}},"1098":{"city":"Epesses","zipCode":1098,"lat":46.4913,"long":6.7478,"closestMainCity":{"city":"Lausanne","zipCode":1001,"lat":46.5218,"long":6.633}},"1110":{"city":"Morges","zipCode":1110,"lat":46.5113,"long":6.4985,"closestMainCity":{"city":"Morges","zipCode":1110,"lat":46.5113,"long":6.4985}},"1112":{"city":"Echichens","zipCode":1112,"lat":46.5303,"long":6.4968,"closestMainCity":{"city":"Morges","zipCode":1110,"lat":46.5113,"long":6.4985}},"1113":{"city":"St-Saphorin-sur-Morges","zipCode":1113,"lat":46.5469,"long":6.4885,"closestMainCity":{"city":"Morges","zipCode":1110,"lat":46.5113,"long":6.4985}},"1114":{"city":"Colombier VD","zipCode":1114,"lat":46.5571,"long":6.4728,"closestMainCity":{"city":"Morges","zipCode":1110,"lat":46.5113,"long":6.4985}},"1115":{"city":"Vullierens","zipCode":1115,"lat":46.574,"long":6.4819,"closestMainCity":{"city":"Morges","zipCode":1110,"lat":46.5113,"long":6.4985}},"1116":{"city":"Cottens VD","zipCode":1116,"lat":46.5725,"long":6.4564,"closestMainCity":{"city":"Morges","zipCode":1110,"lat":46.5113,"long":6.4985}},"1117":{"city":"Grancy","zipCode":1117,"lat":46.5921,"long":6.4639,"closestMainCity":{"city":"Morges","zipCode":1110,"lat":46.5113,"long":6.4985}},"1121":{"city":"Bremblens","zipCode":1121,"lat":46.5483,"long":6.5194,"closestMainCity":{"city":"Morges","zipCode":1110,"lat":46.5113,"long":6.4985}},"1122":{"city":"Romanel-sur-Morges","zipCode":1122,"lat":46.5561,"long":6.5104,"closestMainCity":{"city":"Morges","zipCode":1110,"lat":46.5113,"long":6.4985}},"1123":{"city":"Aclens","zipCode":1123,"lat":46.5663,"long":6.5115,"closestMainCity":{"city":"Morges","zipCode":1110,"lat":46.5113,"long":6.4985}},"1124":{"city":"Gollion","zipCode":1124,"lat":46.5852,"long":6.5097,"closestMainCity":{"city":"Morges","zipCode":1110,"lat":46.5113,"long":6.4985}},"1125":{"city":"Monnaz","zipCode":1125,"lat":46.5325,"long":6.4806,"closestMainCity":{"city":"Morges","zipCode":1110,"lat":46.5113,"long":6.4985}},"1126":{"city":"Vaux-sur-Morges","zipCode":1126,"lat":46.5385,"long":6.4639,"closestMainCity":{"city":"Morges","zipCode":1110,"lat":46.5113,"long":6.4985}},"1127":{"city":"Clarmont","zipCode":1127,"lat":46.5464,"long":6.4495,"closestMainCity":{"city":"Morges","zipCode":1110,"lat":46.5113,"long":6.4985}},"1128":{"city":"Reverolle","zipCode":1128,"lat":46.5428,"long":6.4405,"closestMainCity":{"city":"Morges","zipCode":1110,"lat":46.5113,"long":6.4985}},"1131":{"city":"Tolochenaz","zipCode":1131,"lat":46.505,"long":6.4728,"closestMainCity":{"city":"Morges","zipCode":1110,"lat":46.5113,"long":6.4985}},"1132":{"city":"Lully VD","zipCode":1132,"lat":46.5051,"long":6.4648,"closestMainCity":{"city":"Morges","zipCode":1110,"lat":46.5113,"long":6.4985}},"1134":{"city":"Chigny","zipCode":1134,"lat":46.5197,"long":6.4766,"closestMainCity":{"city":"Morges","zipCode":1110,"lat":46.5113,"long":6.4985}},"1135":{"city":"Denens","zipCode":1135,"lat":46.5177,"long":6.4529,"closestMainCity":{"city":"Morges","zipCode":1110,"lat":46.5113,"long":6.4985}},"1136":{"city":"Bussy-Chardonney","zipCode":1136,"lat":46.5305,"long":6.4425,"closestMainCity":{"city":"Morges","zipCode":1110,"lat":46.5113,"long":6.4985}},"1141":{"city":"Sévery","zipCode":1141,"lat":46.5735,"long":6.4417,"closestMainCity":{"city":"Morges","zipCode":1110,"lat":46.5113,"long":6.4985}},"1142":{"city":"Pampigny","zipCode":1142,"lat":46.5809,"long":6.4294,"closestMainCity":{"city":"Morges","zipCode":1110,"lat":46.5113,"long":6.4985}},"1143":{"city":"Apples","zipCode":1143,"lat":46.5524,"long":6.4289,"closestMainCity":{"city":"Morges","zipCode":1110,"lat":46.5113,"long":6.4985}},"1144":{"city":"Ballens","zipCode":1144,"lat":46.5548,"long":6.3731,"closestMainCity":{"city":"Morges","zipCode":1110,"lat":46.5113,"long":6.4985}},"1145":{"city":"Bière","zipCode":1145,"lat":46.5376,"long":6.3336,"closestMainCity":{"city":"Morges","zipCode":1110,"lat":46.5113,"long":6.4985}},"1146":{"city":"Mollens VD","zipCode":1146,"lat":46.5776,"long":6.3632,"closestMainCity":{"city":"Morges","zipCode":1110,"lat":46.5113,"long":6.4985}},"1147":{"city":"Montricher","zipCode":1147,"lat":46.5996,"long":6.3767,"closestMainCity":{"city":"Morges","zipCode":1110,"lat":46.5113,"long":6.4985}},"1148":{"city":"La Praz","zipCode":1148,"lat":46.6675,"long":6.4271,"closestMainCity":{"city":"Morges","zipCode":1110,"lat":46.5113,"long":6.4985}},"1149":{"city":"Berolle","zipCode":1149,"lat":46.558,"long":6.3355,"closestMainCity":{"city":"Morges","zipCode":1110,"lat":46.5113,"long":6.4985}},"1162":{"city":"St-Prex","zipCode":1162,"lat":46.4796,"long":6.4599,"closestMainCity":{"city":"Morges","zipCode":1110,"lat":46.5113,"long":6.4985}},"1163":{"city":"Etoy","zipCode":1163,"lat":46.4859,"long":6.4182,"closestMainCity":{"city":"Morges","zipCode":1110,"lat":46.5113,"long":6.4985}},"1164":{"city":"Buchillon","zipCode":1164,"lat":46.4698,"long":6.4178,"closestMainCity":{"city":"Morges","zipCode":1110,"lat":46.5113,"long":6.4985}},"1165":{"city":"Allaman","zipCode":1165,"lat":46.4701,"long":6.3964,"closestMainCity":{"city":"Morges","zipCode":1110,"lat":46.5113,"long":6.4985}},"1166":{"city":"Perroy","zipCode":1166,"lat":46.4669,"long":6.3535,"closestMainCity":{"city":"Morges","zipCode":1110,"lat":46.5113,"long":6.4985}},"1167":{"city":"Lussy-sur-Morges","zipCode":1167,"lat":46.5041,"long":6.45,"closestMainCity":{"city":"Morges","zipCode":1110,"lat":46.5113,"long":6.4985}},"1168":{"city":"Villars-sous-Yens","zipCode":1168,"lat":46.5092,"long":6.4293,"closestMainCity":{"city":"Morges","zipCode":1110,"lat":46.5113,"long":6.4985}},"1169":{"city":"Yens","zipCode":1169,"lat":46.519,"long":6.4185,"closestMainCity":{"city":"Morges","zipCode":1110,"lat":46.5113,"long":6.4985}},"1170":{"city":"Aubonne","zipCode":1170,"lat":46.4951,"long":6.3916,"closestMainCity":{"city":"Morges","zipCode":1110,"lat":46.5113,"long":6.4985}},"1172":{"city":"Bougy-Villars","zipCode":1172,"lat":46.4819,"long":6.3536,"closestMainCity":{"city":"Morges","zipCode":1110,"lat":46.5113,"long":6.4985}},"1173":{"city":"Féchy","zipCode":1173,"lat":46.4788,"long":6.3728,"closestMainCity":{"city":"Morges","zipCode":1110,"lat":46.5113,"long":6.4985}},"1174":{"city":"Montherod","zipCode":1174,"lat":46.5017,"long":6.3615,"closestMainCity":{"city":"Morges","zipCode":1110,"lat":46.5113,"long":6.4985}},"1175":{"city":"Lavigny","zipCode":1175,"lat":46.5012,"long":6.4109,"closestMainCity":{"city":"Morges","zipCode":1110,"lat":46.5113,"long":6.4985}},"1176":{"city":"St-Livres","zipCode":1176,"lat":46.5079,"long":6.3875,"closestMainCity":{"city":"Morges","zipCode":1110,"lat":46.5113,"long":6.4985}},"1180":{"city":"Tartegnin","zipCode":1180,"lat":46.4662,"long":6.3125,"closestMainCity":{"city":"Morges","zipCode":1110,"lat":46.5113,"long":6.4985}},"1182":{"city":"Gilly","zipCode":1182,"lat":46.4578,"long":6.2965,"closestMainCity":{"city":"Morges","zipCode":1110,"lat":46.5113,"long":6.4985}},"1183":{"city":"Bursins","zipCode":1183,"lat":46.4528,"long":6.2914,"closestMainCity":{"city":"Morges","zipCode":1110,"lat":46.5113,"long":6.4985}},"1184":{"city":"Vinzel","zipCode":1184,"lat":46.4483,"long":6.2782,"closestMainCity":{"city":"Morges","zipCode":1110,"lat":46.5113,"long":6.4985}},"1185":{"city":"Mont-sur-Rolle","zipCode":1185,"lat":46.4702,"long":6.3352,"closestMainCity":{"city":"Morges","zipCode":1110,"lat":46.5113,"long":6.4985}},"1186":{"city":"Essertines-sur-Rolle","zipCode":1186,"lat":46.4931,"long":6.3177,"closestMainCity":{"city":"Morges","zipCode":1110,"lat":46.5113,"long":6.4985}},"1187":{"city":"St-Oyens","zipCode":1187,"lat":46.4994,"long":6.3033,"closestMainCity":{"city":"Morges","zipCode":1110,"lat":46.5113,"long":6.4985}},"1188":{"city":"Gimel","zipCode":1188,"lat":46.5095,"long":6.3074,"closestMainCity":{"city":"Morges","zipCode":1110,"lat":46.5113,"long":6.4985}},"1189":{"city":"Saubraz","zipCode":1189,"lat":46.5161,"long":6.3302,"closestMainCity":{"city":"Morges","zipCode":1110,"lat":46.5113,"long":6.4985}},"1195":{"city":"Dully","zipCode":1195,"lat":46.4314,"long":6.2946,"closestMainCity":{"city":"Morges","zipCode":1110,"lat":46.5113,"long":6.4985}},"1196":{"city":"Gland","zipCode":1196,"lat":46.4208,"long":6.2701,"closestMainCity":{"city":"Morges","zipCode":1110,"lat":46.5113,"long":6.4985}},"1197":{"city":"Prangins","zipCode":1197,"lat":46.3952,"long":6.2496,"closestMainCity":{"city":"Genève","zipCode":1200,"lat":46.2058,"long":6.1416}},"1200":{"city":"Genève","zipCode":1200,"lat":46.2058,"long":6.1416,"closestMainCity":{"city":"Genève","zipCode":1200,"lat":46.2058,"long":6.1416}},"1201":{"city":"Genève","zipCode":1201,"lat":46.2022,"long":6.1457,"closestMainCity":{"city":"Genève","zipCode":1200,"lat":46.2058,"long":6.1416}},"1202":{"city":"Genève","zipCode":1202,"lat":46.2022,"long":6.1457,"closestMainCity":{"city":"Genève","zipCode":1200,"lat":46.2058,"long":6.1416}},"1203":{"city":"Genève","zipCode":1203,"lat":46.2022,"long":6.1457,"closestMainCity":{"city":"Genève","zipCode":1200,"lat":46.2058,"long":6.1416}},"1204":{"city":"Genève","zipCode":1204,"lat":46.2022,"long":6.1457,"closestMainCity":{"city":"Genève","zipCode":1200,"lat":46.2058,"long":6.1416}},"1205":{"city":"Genève","zipCode":1205,"lat":46.2022,"long":6.1457,"closestMainCity":{"city":"Genève","zipCode":1200,"lat":46.2058,"long":6.1416}},"1206":{"city":"Genève","zipCode":1206,"lat":46.2022,"long":6.1457,"closestMainCity":{"city":"Genève","zipCode":1200,"lat":46.2058,"long":6.1416}},"1207":{"city":"Genève","zipCode":1207,"lat":46.2022,"long":6.1457,"closestMainCity":{"city":"Genève","zipCode":1200,"lat":46.2058,"long":6.1416}},"1208":{"city":"Genève","zipCode":1208,"lat":46.2022,"long":6.1457,"closestMainCity":{"city":"Genève","zipCode":1200,"lat":46.2058,"long":6.1416}},"1209":{"city":"Genève","zipCode":1209,"lat":46.2022,"long":6.1457,"closestMainCity":{"city":"Genève","zipCode":1200,"lat":46.2058,"long":6.1416}},"1211":{"city":"Genève","zipCode":1211,"lat":46.2058,"long":6.1416,"closestMainCity":{"city":"Genève","zipCode":1200,"lat":46.2058,"long":6.1416}},"1212":{"city":"Grand-Lancy","zipCode":1212,"lat":46.1788,"long":6.1229,"closestMainCity":{"city":"Genève","zipCode":1200,"lat":46.2058,"long":6.1416}},"1213":{"city":"Onex","zipCode":1213,"lat":46.184,"long":6.1024,"closestMainCity":{"city":"Genève","zipCode":1200,"lat":46.2058,"long":6.1416}},"1214":{"city":"Vernier","zipCode":1214,"lat":46.217,"long":6.085,"closestMainCity":{"city":"Genève","zipCode":1200,"lat":46.2058,"long":6.1416}},"1215":{"city":"Genève","zipCode":1215,"lat":46.2358,"long":6.1192,"closestMainCity":{"city":"Genève","zipCode":1200,"lat":46.2058,"long":6.1416}},"1216":{"city":"Cointrin","zipCode":1216,"lat":46.2267,"long":6.1055,"closestMainCity":{"city":"Genève","zipCode":1200,"lat":46.2058,"long":6.1416}},"1217":{"city":"Meyrin","zipCode":1217,"lat":46.2342,"long":6.0802,"closestMainCity":{"city":"Genève","zipCode":1200,"lat":46.2058,"long":6.1416}},"1218":{"city":"Le Grand-Saconnex","zipCode":1218,"lat":46.2319,"long":6.1209,"closestMainCity":{"city":"Genève","zipCode":1200,"lat":46.2058,"long":6.1416}},"1219":{"city":"Châtelaine","zipCode":1219,"lat":46.2114,"long":6.1089,"closestMainCity":{"city":"Genève","zipCode":1200,"lat":46.2058,"long":6.1416}},"1220":{"city":"Les Avanchets","zipCode":1220,"lat":46.2217,"long":6.1081,"closestMainCity":{"city":"Genève","zipCode":1200,"lat":46.2058,"long":6.1416}},"1222":{"city":"Vésenaz","zipCode":1222,"lat":46.2403,"long":6.1975,"closestMainCity":{"city":"Genève","zipCode":1200,"lat":46.2058,"long":6.1416}},"1223":{"city":"Cologny","zipCode":1223,"lat":46.2167,"long":6.1804,"closestMainCity":{"city":"Genève","zipCode":1200,"lat":46.2058,"long":6.1416}},"1224":{"city":"Chêne-Bougeries","zipCode":1224,"lat":46.1984,"long":6.1864,"closestMainCity":{"city":"Genève","zipCode":1200,"lat":46.2058,"long":6.1416}},"1225":{"city":"Chêne-Bourg","zipCode":1225,"lat":46.1953,"long":6.1941,"closestMainCity":{"city":"Genève","zipCode":1200,"lat":46.2058,"long":6.1416}},"1226":{"city":"Thônex","zipCode":1226,"lat":46.1881,"long":6.199,"closestMainCity":{"city":"Genève","zipCode":1200,"lat":46.2058,"long":6.1416}},"1227":{"city":"Carouge GE","zipCode":1227,"lat":46.1917,"long":6.1361,"closestMainCity":{"city":"Genève","zipCode":1200,"lat":46.2058,"long":6.1416}},"1228":{"city":"Plan-les-Ouates","zipCode":1228,"lat":46.1679,"long":6.1166,"closestMainCity":{"city":"Genève","zipCode":1200,"lat":46.2058,"long":6.1416}},"1231":{"city":"Conches","zipCode":1231,"lat":46.185,"long":6.1739,"closestMainCity":{"city":"Genève","zipCode":1200,"lat":46.2058,"long":6.1416}},"1232":{"city":"Confignon","zipCode":1232,"lat":46.1734,"long":6.0844,"closestMainCity":{"city":"Genève","zipCode":1200,"lat":46.2058,"long":6.1416}},"1233":{"city":"Bernex","zipCode":1233,"lat":46.1765,"long":6.0754,"closestMainCity":{"city":"Genève","zipCode":1200,"lat":46.2058,"long":6.1416}},"1234":{"city":"Vessy","zipCode":1234,"lat":46.1831,"long":6.1668,"closestMainCity":{"city":"Genève","zipCode":1200,"lat":46.2058,"long":6.1416}},"1236":{"city":"Cartigny","zipCode":1236,"lat":46.1741,"long":6.0198,"closestMainCity":{"city":"Genève","zipCode":1200,"lat":46.2058,"long":6.1416}},"1237":{"city":"Avully","zipCode":1237,"lat":46.1701,"long":6.0046,"closestMainCity":{"city":"Genève","zipCode":1200,"lat":46.2058,"long":6.1416}},"1239":{"city":"Collex","zipCode":1239,"lat":46.2715,"long":6.1233,"closestMainCity":{"city":"Genève","zipCode":1200,"lat":46.2058,"long":6.1416}},"1240":{"city":"Genève","zipCode":1240,"lat":46.2058,"long":6.1416,"closestMainCity":{"city":"Genève","zipCode":1200,"lat":46.2058,"long":6.1416}},"1241":{"city":"Puplinge","zipCode":1241,"lat":46.2104,"long":6.2311,"closestMainCity":{"city":"Genève","zipCode":1200,"lat":46.2058,"long":6.1416}},"1242":{"city":"Satigny","zipCode":1242,"lat":46.2146,"long":6.0355,"closestMainCity":{"city":"Genève","zipCode":1200,"lat":46.2058,"long":6.1416}},"1243":{"city":"Presinge","zipCode":1243,"lat":46.2198,"long":6.2552,"closestMainCity":{"city":"Genève","zipCode":1200,"lat":46.2058,"long":6.1416}},"1244":{"city":"Choulex","zipCode":1244,"lat":46.2263,"long":6.2238,"closestMainCity":{"city":"Genève","zipCode":1200,"lat":46.2058,"long":6.1416}},"1245":{"city":"Collonge-Bellerive","zipCode":1245,"lat":46.2504,"long":6.1959,"closestMainCity":{"city":"Genève","zipCode":1200,"lat":46.2058,"long":6.1416}},"1246":{"city":"Corsier GE","zipCode":1246,"lat":46.263,"long":6.2246,"closestMainCity":{"city":"Genève","zipCode":1200,"lat":46.2058,"long":6.1416}},"1247":{"city":"Anières","zipCode":1247,"lat":46.2767,"long":6.222,"closestMainCity":{"city":"Genève","zipCode":1200,"lat":46.2058,"long":6.1416}},"1248":{"city":"Hermance","zipCode":1248,"lat":46.3014,"long":6.2433,"closestMainCity":{"city":"Genève","zipCode":1200,"lat":46.2058,"long":6.1416}},"1251":{"city":"Gy","zipCode":1251,"lat":46.2532,"long":6.2591,"closestMainCity":{"city":"Genève","zipCode":1200,"lat":46.2058,"long":6.1416}},"1252":{"city":"Meinier","zipCode":1252,"lat":46.2471,"long":6.2342,"closestMainCity":{"city":"Genève","zipCode":1200,"lat":46.2058,"long":6.1416}},"1253":{"city":"Vandoeuvres","zipCode":1253,"lat":46.2218,"long":6.2029,"closestMainCity":{"city":"Genève","zipCode":1200,"lat":46.2058,"long":6.1416}},"1254":{"city":"Jussy","zipCode":1254,"lat":46.2359,"long":6.267,"closestMainCity":{"city":"Genève","zipCode":1200,"lat":46.2058,"long":6.1416}},"1255":{"city":"Veyrier","zipCode":1255,"lat":46.167,"long":6.1844,"closestMainCity":{"city":"Genève","zipCode":1200,"lat":46.2058,"long":6.1416}},"1256":{"city":"Troinex","zipCode":1256,"lat":46.1631,"long":6.1475,"closestMainCity":{"city":"Genève","zipCode":1200,"lat":46.2058,"long":6.1416}},"1257":{"city":"La Croix-de-Rozon","zipCode":1257,"lat":46.1454,"long":6.1364,"closestMainCity":{"city":"Genève","zipCode":1200,"lat":46.2058,"long":6.1416}},"1258":{"city":"Perly","zipCode":1258,"lat":46.157,"long":6.0923,"closestMainCity":{"city":"Genève","zipCode":1200,"lat":46.2058,"long":6.1416}},"1260":{"city":"Nyon","zipCode":1260,"lat":46.3832,"long":6.2395,"closestMainCity":{"city":"Genève","zipCode":1200,"lat":46.2058,"long":6.1416}},"1261":{"city":"Longirod","zipCode":1261,"lat":46.495,"long":6.2584,"closestMainCity":{"city":"Morges","zipCode":1110,"lat":46.5113,"long":6.4985}},"1262":{"city":"Eysins","zipCode":1262,"lat":46.3817,"long":6.207,"closestMainCity":{"city":"Genève","zipCode":1200,"lat":46.2058,"long":6.1416}},"1263":{"city":"Crassier","zipCode":1263,"lat":46.3746,"long":6.1637,"closestMainCity":{"city":"Genève","zipCode":1200,"lat":46.2058,"long":6.1416}},"1264":{"city":"St-Cergue","zipCode":1264,"lat":46.4459,"long":6.1574,"closestMainCity":{"city":"Genève","zipCode":1200,"lat":46.2058,"long":6.1416}},"1265":{"city":"La Cure","zipCode":1265,"lat":46.4647,"long":6.0742,"closestMainCity":{"city":"Genève","zipCode":1200,"lat":46.2058,"long":6.1416}},"1266":{"city":"Duillier","zipCode":1266,"lat":46.4092,"long":6.2298,"closestMainCity":{"city":"Morges","zipCode":1110,"lat":46.5113,"long":6.4985}},"1267":{"city":"Vich","zipCode":1267,"lat":46.4292,"long":6.2501,"closestMainCity":{"city":"Morges","zipCode":1110,"lat":46.5113,"long":6.4985}},"1268":{"city":"Burtigny","zipCode":1268,"lat":46.4675,"long":6.2571,"closestMainCity":{"city":"Morges","zipCode":1110,"lat":46.5113,"long":6.4985}},"1269":{"city":"Bassins","zipCode":1269,"lat":46.4627,"long":6.2362,"closestMainCity":{"city":"Morges","zipCode":1110,"lat":46.5113,"long":6.4985}},"1270":{"city":"Trélex","zipCode":1270,"lat":46.4154,"long":6.2081,"closestMainCity":{"city":"Genève","zipCode":1200,"lat":46.2058,"long":6.1416}},"1271":{"city":"Givrins","zipCode":1271,"lat":46.4297,"long":6.2021,"closestMainCity":{"city":"Morges","zipCode":1110,"lat":46.5113,"long":6.4985}},"1272":{"city":"Genolier","zipCode":1272,"lat":46.4354,"long":6.2181,"closestMainCity":{"city":"Morges","zipCode":1110,"lat":46.5113,"long":6.4985}},"1273":{"city":"Arzier-Le Muids","zipCode":1273,"lat":46.4596,"long":6.2081,"closestMainCity":{"city":"Morges","zipCode":1110,"lat":46.5113,"long":6.4985}},"1274":{"city":"Signy","zipCode":1274,"lat":46.3917,"long":6.2029,"closestMainCity":{"city":"Genève","zipCode":1200,"lat":46.2058,"long":6.1416}},"1275":{"city":"Chéserex","zipCode":1275,"lat":46.3993,"long":6.174,"closestMainCity":{"city":"Genève","zipCode":1200,"lat":46.2058,"long":6.1416}},"1276":{"city":"Gingins","zipCode":1276,"lat":46.4091,"long":6.1781,"closestMainCity":{"city":"Genève","zipCode":1200,"lat":46.2058,"long":6.1416}},"1277":{"city":"Arnex-sur-Nyon","zipCode":1277,"lat":46.3729,"long":6.1898,"closestMainCity":{"city":"Genève","zipCode":1200,"lat":46.2058,"long":6.1416}},"1278":{"city":"La Rippe","zipCode":1278,"lat":46.381,"long":6.1505,"closestMainCity":{"city":"Genève","zipCode":1200,"lat":46.2058,"long":6.1416}},"1279":{"city":"Bogis-Bossey","zipCode":1279,"lat":46.3537,"long":6.166,"closestMainCity":{"city":"Genève","zipCode":1200,"lat":46.2058,"long":6.1416}},"1281":{"city":"Russin","zipCode":1281,"lat":46.187,"long":6.0138,"closestMainCity":{"city":"Genève","zipCode":1200,"lat":46.2058,"long":6.1416}},"1283":{"city":"Dardagny","zipCode":1283,"lat":46.1956,"long":5.995,"closestMainCity":{"city":"Genève","zipCode":1200,"lat":46.2058,"long":6.1416}},"1284":{"city":"Chancy","zipCode":1284,"lat":46.15,"long":5.9715,"closestMainCity":{"city":"Genève","zipCode":1200,"lat":46.2058,"long":6.1416}},"1285":{"city":"Athenaz (Avusy)","zipCode":1285,"lat":46.1518,"long":6.0021,"closestMainCity":{"city":"Genève","zipCode":1200,"lat":46.2058,"long":6.1416}},"1286":{"city":"Soral","zipCode":1286,"lat":46.1437,"long":6.0428,"closestMainCity":{"city":"Genève","zipCode":1200,"lat":46.2058,"long":6.1416}},"1287":{"city":"Laconnex","zipCode":1287,"lat":46.157,"long":6.0313,"closestMainCity":{"city":"Genève","zipCode":1200,"lat":46.2058,"long":6.1416}},"1288":{"city":"Aire-la-Ville","zipCode":1288,"lat":46.1906,"long":6.0429,"closestMainCity":{"city":"Genève","zipCode":1200,"lat":46.2058,"long":6.1416}},"1290":{"city":"Versoix","zipCode":1290,"lat":46.2838,"long":6.1621,"closestMainCity":{"city":"Genève","zipCode":1200,"lat":46.2058,"long":6.1416}},"1291":{"city":"Commugny","zipCode":1291,"lat":46.321,"long":6.1712,"closestMainCity":{"city":"Genève","zipCode":1200,"lat":46.2058,"long":6.1416}},"1292":{"city":"Chambésy","zipCode":1292,"lat":46.2441,"long":6.1444,"closestMainCity":{"city":"Genève","zipCode":1200,"lat":46.2058,"long":6.1416}},"1293":{"city":"Bellevue","zipCode":1293,"lat":46.2574,"long":6.1547,"closestMainCity":{"city":"Genève","zipCode":1200,"lat":46.2058,"long":6.1416}},"1294":{"city":"Genthod","zipCode":1294,"lat":46.2672,"long":6.1556,"closestMainCity":{"city":"Genève","zipCode":1200,"lat":46.2058,"long":6.1416}},"1295":{"city":"Mies","zipCode":1295,"lat":46.3035,"long":6.1633,"closestMainCity":{"city":"Genève","zipCode":1200,"lat":46.2058,"long":6.1416}},"1296":{"city":"Coppet","zipCode":1296,"lat":46.3168,"long":6.1911,"closestMainCity":{"city":"Genève","zipCode":1200,"lat":46.2058,"long":6.1416}},"1297":{"city":"Founex","zipCode":1297,"lat":46.3328,"long":6.1924,"closestMainCity":{"city":"Genève","zipCode":1200,"lat":46.2058,"long":6.1416}},"1298":{"city":"Céligny","zipCode":1298,"lat":46.3507,"long":6.195,"closestMainCity":{"city":"Genève","zipCode":1200,"lat":46.2058,"long":6.1416}},"1299":{"city":"Crans-près-Céligny","zipCode":1299,"lat":46.3591,"long":6.2058,"closestMainCity":{"city":"Genève","zipCode":1200,"lat":46.2058,"long":6.1416}},"1302":{"city":"Vufflens-la-Ville","zipCode":1302,"lat":46.5752,"long":6.5372,"closestMainCity":{"city":"Morges","zipCode":1110,"lat":46.5113,"long":6.4985}},"1303":{"city":"Penthaz","zipCode":1303,"lat":46.5987,"long":6.5413,"closestMainCity":{"city":"Morges","zipCode":1110,"lat":46.5113,"long":6.4985}},"1304":{"city":"Cossonay-Ville","zipCode":1304,"lat":46.6144,"long":6.5063,"closestMainCity":{"city":"Morges","zipCode":1110,"lat":46.5113,"long":6.4985}},"1305":{"city":"Penthalaz","zipCode":1305,"lat":46.6108,"long":6.5252,"closestMainCity":{"city":"Morges","zipCode":1110,"lat":46.5113,"long":6.4985}},"1306":{"city":"Daillens","zipCode":1306,"lat":46.6211,"long":6.5487,"closestMainCity":{"city":"Lausanne","zipCode":1001,"lat":46.5218,"long":6.633}},"1307":{"city":"Lussery-Villars","zipCode":1307,"lat":46.6328,"long":6.5256,"closestMainCity":{"city":"Morges","zipCode":1110,"lat":46.5113,"long":6.4985}},"1308":{"city":"La Chaux (Cossonay)","zipCode":1308,"lat":46.6171,"long":6.4722,"closestMainCity":{"city":"Morges","zipCode":1110,"lat":46.5113,"long":6.4985}},"1312":{"city":"Eclépens","zipCode":1312,"lat":46.6482,"long":6.5358,"closestMainCity":{"city":"Morges","zipCode":1110,"lat":46.5113,"long":6.4985}},"1313":{"city":"Ferreyres","zipCode":1313,"lat":46.658,"long":6.4852,"closestMainCity":{"city":"Morges","zipCode":1110,"lat":46.5113,"long":6.4985}},"1315":{"city":"La Sarraz","zipCode":1315,"lat":46.6586,"long":6.5108,"closestMainCity":{"city":"Morges","zipCode":1110,"lat":46.5113,"long":6.4985}},"1316":{"city":"Chevilly","zipCode":1316,"lat":46.6427,"long":6.4766,"closestMainCity":{"city":"Morges","zipCode":1110,"lat":46.5113,"long":6.4985}},"1317":{"city":"Orny","zipCode":1317,"lat":46.6676,"long":6.5264,"closestMainCity":{"city":"Yverdon-les-Bains","zipCode":1400,"lat":46.7785,"long":6.6411}},"1318":{"city":"Pompaples","zipCode":1318,"lat":46.667,"long":6.5097,"closestMainCity":{"city":"Yverdon-les-Bains","zipCode":1400,"lat":46.7785,"long":6.6411}},"1321":{"city":"Arnex-sur-Orbe","zipCode":1321,"lat":46.69,"long":6.5169,"closestMainCity":{"city":"Yverdon-les-Bains","zipCode":1400,"lat":46.7785,"long":6.6411}},"1322":{"city":"Croy","zipCode":1322,"lat":46.6938,"long":6.4757,"closestMainCity":{"city":"Yverdon-les-Bains","zipCode":1400,"lat":46.7785,"long":6.6411}},"1323":{"city":"Romainmôtier","zipCode":1323,"lat":46.6939,"long":6.4609,"closestMainCity":{"city":"Yverdon-les-Bains","zipCode":1400,"lat":46.7785,"long":6.6411}},"1324":{"city":"Premier","zipCode":1324,"lat":46.7057,"long":6.4499,"closestMainCity":{"city":"Yverdon-les-Bains","zipCode":1400,"lat":46.7785,"long":6.6411}},"1325":{"city":"Vaulion","zipCode":1325,"lat":46.6891,"long":6.3894,"closestMainCity":{"city":"Morges","zipCode":1110,"lat":46.5113,"long":6.4985}},"1326":{"city":"Juriens","zipCode":1326,"lat":46.6885,"long":6.4457,"closestMainCity":{"city":"Yverdon-les-Bains","zipCode":1400,"lat":46.7785,"long":6.6411}},"1329":{"city":"Bretonnières","zipCode":1329,"lat":46.7124,"long":6.4696,"closestMainCity":{"city":"Yverdon-les-Bains","zipCode":1400,"lat":46.7785,"long":6.6411}},"1337":{"city":"Vallorbe","zipCode":1337,"lat":46.7126,"long":6.3789,"closestMainCity":{"city":"Yverdon-les-Bains","zipCode":1400,"lat":46.7785,"long":6.6411}},"1338":{"city":"Ballaigues","zipCode":1338,"lat":46.7298,"long":6.4136,"closestMainCity":{"city":"Yverdon-les-Bains","zipCode":1400,"lat":46.7785,"long":6.6411}},"1341":{"city":"Orient","zipCode":1341,"lat":46.6015,"long":6.2394,"closestMainCity":{"city":"Morges","zipCode":1110,"lat":46.5113,"long":6.4985}},"1342":{"city":"Le Pont","zipCode":1342,"lat":46.6658,"long":6.3309,"closestMainCity":{"city":"Morges","zipCode":1110,"lat":46.5113,"long":6.4985}},"1343":{"city":"Les Charbonnières","zipCode":1343,"lat":46.6667,"long":6.3156,"closestMainCity":{"city":"Morges","zipCode":1110,"lat":46.5113,"long":6.4985}},"1344":{"city":"L'Abbaye","zipCode":1344,"lat":46.6497,"long":6.3191,"closestMainCity":{"city":"Morges","zipCode":1110,"lat":46.5113,"long":6.4985}},"1345":{"city":"Le Séchey","zipCode":1345,"lat":46.6614,"long":6.3009,"closestMainCity":{"city":"Morges","zipCode":1110,"lat":46.5113,"long":6.4985}},"1346":{"city":"Les Bioux","zipCode":1346,"lat":46.6207,"long":6.2699,"closestMainCity":{"city":"Morges","zipCode":1110,"lat":46.5113,"long":6.4985}},"1347":{"city":"Le Solliat","zipCode":1347,"lat":46.6211,"long":6.2355,"closestMainCity":{"city":"Morges","zipCode":1110,"lat":46.5113,"long":6.4985}},"1348":{"city":"Le Brassus","zipCode":1348,"lat":46.5841,"long":6.2123,"closestMainCity":{"city":"Morges","zipCode":1110,"lat":46.5113,"long":6.4985}},"1350":{"city":"Orbe","zipCode":1350,"lat":46.725,"long":6.5307,"closestMainCity":{"city":"Yverdon-les-Bains","zipCode":1400,"lat":46.7785,"long":6.6411}},"1352":{"city":"Agiez","zipCode":1352,"lat":46.721,"long":6.5075,"closestMainCity":{"city":"Yverdon-les-Bains","zipCode":1400,"lat":46.7785,"long":6.6411}},"1353":{"city":"Bofflens","zipCode":1353,"lat":46.7031,"long":6.4948,"closestMainCity":{"city":"Yverdon-les-Bains","zipCode":1400,"lat":46.7785,"long":6.6411}},"1354":{"city":"Montcherand","zipCode":1354,"lat":46.7336,"long":6.5082,"closestMainCity":{"city":"Yverdon-les-Bains","zipCode":1400,"lat":46.7785,"long":6.6411}},"1355":{"city":"L'Abergement","zipCode":1355,"lat":46.7542,"long":6.485,"closestMainCity":{"city":"Yverdon-les-Bains","zipCode":1400,"lat":46.7785,"long":6.6411}},"1356":{"city":"Les Clées","zipCode":1356,"lat":46.7379,"long":6.4808,"closestMainCity":{"city":"Yverdon-les-Bains","zipCode":1400,"lat":46.7785,"long":6.6411}},"1357":{"city":"Lignerolle","zipCode":1357,"lat":46.7408,"long":6.4587,"closestMainCity":{"city":"Yverdon-les-Bains","zipCode":1400,"lat":46.7785,"long":6.6411}},"1358":{"city":"Valeyres-sous-Rances","zipCode":1358,"lat":46.753,"long":6.5262,"closestMainCity":{"city":"Yverdon-les-Bains","zipCode":1400,"lat":46.7785,"long":6.6411}},"1372":{"city":"Bavois","zipCode":1372,"lat":46.684,"long":6.5671,"closestMainCity":{"city":"Yverdon-les-Bains","zipCode":1400,"lat":46.7785,"long":6.6411}},"1373":{"city":"Chavornay","zipCode":1373,"lat":46.7024,"long":6.5694,"closestMainCity":{"city":"Yverdon-les-Bains","zipCode":1400,"lat":46.7785,"long":6.6411}},"1374":{"city":"Corcelles-sur-Chavornay","zipCode":1374,"lat":46.7065,"long":6.569,"closestMainCity":{"city":"Yverdon-les-Bains","zipCode":1400,"lat":46.7785,"long":6.6411}},"1375":{"city":"Penthéréaz","zipCode":1375,"lat":46.6817,"long":6.6039,"closestMainCity":{"city":"Yverdon-les-Bains","zipCode":1400,"lat":46.7785,"long":6.6411}},"1376":{"city":"Eclagnens","zipCode":1376,"lat":46.6513,"long":6.5919,"closestMainCity":{"city":"Yverdon-les-Bains","zipCode":1400,"lat":46.7785,"long":6.6411}},"1377":{"city":"Oulens-sous-Echallens","zipCode":1377,"lat":46.6438,"long":6.577,"closestMainCity":{"city":"Lausanne","zipCode":1001,"lat":46.5218,"long":6.633}},"1400":{"city":"Yverdon-les-Bains","zipCode":1400,"lat":46.7785,"long":6.6411,"closestMainCity":{"city":"Yverdon-les-Bains","zipCode":1400,"lat":46.7785,"long":6.6411}},"1401":{"city":"Yverdon-les-Bains","zipCode":1401,"lat":46.7743,"long":6.6371,"closestMainCity":{"city":"Yverdon-les-Bains","zipCode":1400,"lat":46.7785,"long":6.6411}},"1404":{"city":"Cuarny","zipCode":1404,"lat":46.7699,"long":6.6921,"closestMainCity":{"city":"Yverdon-les-Bains","zipCode":1400,"lat":46.7785,"long":6.6411}},"1405":{"city":"Pomy","zipCode":1405,"lat":46.7586,"long":6.6691,"closestMainCity":{"city":"Yverdon-les-Bains","zipCode":1400,"lat":46.7785,"long":6.6411}},"1406":{"city":"Cronay","zipCode":1406,"lat":46.7566,"long":6.6977,"closestMainCity":{"city":"Yverdon-les-Bains","zipCode":1400,"lat":46.7785,"long":6.6411}},"1407":{"city":"Donneloye","zipCode":1407,"lat":46.7455,"long":6.7164,"closestMainCity":{"city":"Yverdon-les-Bains","zipCode":1400,"lat":46.7785,"long":6.6411}},"1408":{"city":"Prahins","zipCode":1408,"lat":46.7348,"long":6.7386,"closestMainCity":{"city":"Yverdon-les-Bains","zipCode":1400,"lat":46.7785,"long":6.6411}},"1409":{"city":"Chanéaz","zipCode":1409,"lat":46.7288,"long":6.7448,"closestMainCity":{"city":"Yverdon-les-Bains","zipCode":1400,"lat":46.7785,"long":6.6411}},"1410":{"city":"Prévondavaux","zipCode":1410,"lat":46.7296,"long":6.7956,"closestMainCity":{"city":"Yverdon-les-Bains","zipCode":1400,"lat":46.7785,"long":6.6411}},"1412":{"city":"Valeyres-sous-Ursins","zipCode":1412,"lat":46.7471,"long":6.6523,"closestMainCity":{"city":"Yverdon-les-Bains","zipCode":1400,"lat":46.7785,"long":6.6411}},"1413":{"city":"Orzens","zipCode":1413,"lat":46.7263,"long":6.683,"closestMainCity":{"city":"Yverdon-les-Bains","zipCode":1400,"lat":46.7785,"long":6.6411}},"1415":{"city":"Démoret","zipCode":1415,"lat":46.7469,"long":6.7609,"closestMainCity":{"city":"Yverdon-les-Bains","zipCode":1400,"lat":46.7785,"long":6.6411}},"1416":{"city":"Pailly","zipCode":1416,"lat":46.7012,"long":6.6754,"closestMainCity":{"city":"Yverdon-les-Bains","zipCode":1400,"lat":46.7785,"long":6.6411}},"1417":{"city":"Epautheyres","zipCode":1417,"lat":46.7394,"long":6.6426,"closestMainCity":{"city":"Yverdon-les-Bains","zipCode":1400,"lat":46.7785,"long":6.6411}},"1418":{"city":"Vuarrens","zipCode":1418,"lat":46.6858,"long":6.6479,"closestMainCity":{"city":"Yverdon-les-Bains","zipCode":1400,"lat":46.7785,"long":6.6411}},"1420":{"city":"Fiez","zipCode":1420,"lat":46.8282,"long":6.6239,"closestMainCity":{"city":"Yverdon-les-Bains","zipCode":1400,"lat":46.7785,"long":6.6411}},"1421":{"city":"Grandevent","zipCode":1421,"lat":46.8389,"long":6.6066,"closestMainCity":{"city":"Yverdon-les-Bains","zipCode":1400,"lat":46.7785,"long":6.6411}},"1422":{"city":"Grandson","zipCode":1422,"lat":46.8095,"long":6.646,"closestMainCity":{"city":"Yverdon-les-Bains","zipCode":1400,"lat":46.7785,"long":6.6411}},"1423":{"city":"Romairon","zipCode":1423,"lat":46.8502,"long":6.6425,"closestMainCity":{"city":"Yverdon-les-Bains","zipCode":1400,"lat":46.7785,"long":6.6411}},"1424":{"city":"Champagne","zipCode":1424,"lat":46.8321,"long":6.6598,"closestMainCity":{"city":"Yverdon-les-Bains","zipCode":1400,"lat":46.7785,"long":6.6411}},"1425":{"city":"Onnens VD","zipCode":1425,"lat":46.8389,"long":6.689,"closestMainCity":{"city":"Yverdon-les-Bains","zipCode":1400,"lat":46.7785,"long":6.6411}},"1426":{"city":"Concise","zipCode":1426,"lat":46.8503,"long":6.7197,"closestMainCity":{"city":"Yverdon-les-Bains","zipCode":1400,"lat":46.7785,"long":6.6411}},"1427":{"city":"Bonvillars","zipCode":1427,"lat":46.8398,"long":6.6713,"closestMainCity":{"city":"Yverdon-les-Bains","zipCode":1400,"lat":46.7785,"long":6.6411}},"1428":{"city":"Mutrux","zipCode":1428,"lat":46.8808,"long":6.7266,"closestMainCity":{"city":"Yverdon-les-Bains","zipCode":1400,"lat":46.7785,"long":6.6411}},"1429":{"city":"Giez","zipCode":1429,"lat":46.816,"long":6.6171,"closestMainCity":{"city":"Yverdon-les-Bains","zipCode":1400,"lat":46.7785,"long":6.6411}},"1430":{"city":"Orges","zipCode":1430,"lat":46.8093,"long":6.5835,"closestMainCity":{"city":"Yverdon-les-Bains","zipCode":1400,"lat":46.7785,"long":6.6411}},"1431":{"city":"Vugelles-La Mothe","zipCode":1431,"lat":46.825,"long":6.5738,"closestMainCity":{"city":"Yverdon-les-Bains","zipCode":1400,"lat":46.7785,"long":6.6411}},"1432":{"city":"Belmont-sur-Yverdon","zipCode":1432,"lat":46.7418,"long":6.6247,"closestMainCity":{"city":"Yverdon-les-Bains","zipCode":1400,"lat":46.7785,"long":6.6411}},"1433":{"city":"Suchy","zipCode":1433,"lat":46.7235,"long":6.5993,"closestMainCity":{"city":"Yverdon-les-Bains","zipCode":1400,"lat":46.7785,"long":6.6411}},"1434":{"city":"Ependes VD","zipCode":1434,"lat":46.7428,"long":6.6081,"closestMainCity":{"city":"Yverdon-les-Bains","zipCode":1400,"lat":46.7785,"long":6.6411}},"1435":{"city":"Essert-Pittet","zipCode":1435,"lat":46.7065,"long":6.569,"closestMainCity":{"city":"Yverdon-les-Bains","zipCode":1400,"lat":46.7785,"long":6.6411}},"1436":{"city":"Chamblon","zipCode":1436,"lat":46.7791,"long":6.6026,"closestMainCity":{"city":"Yverdon-les-Bains","zipCode":1400,"lat":46.7785,"long":6.6411}},"1437":{"city":"Suscévaz","zipCode":1437,"lat":46.7622,"long":6.5868,"closestMainCity":{"city":"Yverdon-les-Bains","zipCode":1400,"lat":46.7785,"long":6.6411}},"1438":{"city":"Mathod","zipCode":1438,"lat":46.7664,"long":6.5647,"closestMainCity":{"city":"Yverdon-les-Bains","zipCode":1400,"lat":46.7785,"long":6.6411}},"1439":{"city":"Rances","zipCode":1439,"lat":46.7607,"long":6.5297,"closestMainCity":{"city":"Yverdon-les-Bains","zipCode":1400,"lat":46.7785,"long":6.6411}},"1440":{"city":"Montagny-Chamard","zipCode":1440,"lat":46.7904,"long":6.6098,"closestMainCity":{"city":"Yverdon-les-Bains","zipCode":1400,"lat":46.7785,"long":6.6411}},"1441":{"city":"Valeyres-sous-Montagny","zipCode":1441,"lat":46.8005,"long":6.6037,"closestMainCity":{"city":"Yverdon-les-Bains","zipCode":1400,"lat":46.7785,"long":6.6411}},"1442":{"city":"Montagny-près-Yverdon","zipCode":1442,"lat":46.7929,"long":6.6122,"closestMainCity":{"city":"Yverdon-les-Bains","zipCode":1400,"lat":46.7785,"long":6.6411}},"1443":{"city":"Champvent","zipCode":1443,"lat":46.7829,"long":6.5719,"closestMainCity":{"city":"Yverdon-les-Bains","zipCode":1400,"lat":46.7785,"long":6.6411}},"1445":{"city":"Vuiteboeuf","zipCode":1445,"lat":46.8092,"long":6.5504,"closestMainCity":{"city":"Yverdon-les-Bains","zipCode":1400,"lat":46.7785,"long":6.6411}},"1446":{"city":"Baulmes","zipCode":1446,"lat":46.7903,"long":6.5228,"closestMainCity":{"city":"Yverdon-les-Bains","zipCode":1400,"lat":46.7785,"long":6.6411}},"1450":{"city":"La Sagne (Ste-Croix)","zipCode":1450,"lat":46.8165,"long":6.4982,"closestMainCity":{"city":"Yverdon-les-Bains","zipCode":1400,"lat":46.7785,"long":6.6411}},"1452":{"city":"Les Rasses","zipCode":1452,"lat":46.829,"long":6.5391,"closestMainCity":{"city":"Yverdon-les-Bains","zipCode":1400,"lat":46.7785,"long":6.6411}},"1453":{"city":"Bullet","zipCode":1453,"lat":46.8312,"long":6.554,"closestMainCity":{"city":"Yverdon-les-Bains","zipCode":1400,"lat":46.7785,"long":6.6411}},"1454":{"city":"L'Auberson","zipCode":1454,"lat":46.8192,"long":6.4597,"closestMainCity":{"city":"Yverdon-les-Bains","zipCode":1400,"lat":46.7785,"long":6.6411}},"1462":{"city":"Yvonand","zipCode":1462,"lat":46.8003,"long":6.7425,"closestMainCity":{"city":"Yverdon-les-Bains","zipCode":1400,"lat":46.7785,"long":6.6411}},"1463":{"city":"Rovray","zipCode":1463,"lat":46.7849,"long":6.7644,"closestMainCity":{"city":"Yverdon-les-Bains","zipCode":1400,"lat":46.7785,"long":6.6411}},"1464":{"city":"Chavannes-le-Chêne","zipCode":1464,"lat":46.777,"long":6.7779,"closestMainCity":{"city":"Yverdon-les-Bains","zipCode":1400,"lat":46.7785,"long":6.6411}},"1468":{"city":"Cheyres","zipCode":1468,"lat":46.8144,"long":6.7868,"closestMainCity":{"city":"Yverdon-les-Bains","zipCode":1400,"lat":46.7785,"long":6.6411}},"1470":{"city":"Seiry","zipCode":1470,"lat":46.8141,"long":6.8313,"closestMainCity":{"city":"Yverdon-les-Bains","zipCode":1400,"lat":46.7785,"long":6.6411}},"1473":{"city":"Châtillon FR","zipCode":1473,"lat":46.8305,"long":6.8315,"closestMainCity":{"city":"Yverdon-les-Bains","zipCode":1400,"lat":46.7785,"long":6.6411}},"1474":{"city":"Châbles FR","zipCode":1474,"lat":46.8245,"long":6.8108,"closestMainCity":{"city":"Yverdon-les-Bains","zipCode":1400,"lat":46.7785,"long":6.6411}},"1475":{"city":"Forel FR","zipCode":1475,"lat":46.8774,"long":6.8891,"closestMainCity":{"city":"Neuchâtel","zipCode":2000,"lat":46.9918,"long":6.931}},"1482":{"city":"Cugy FR","zipCode":1482,"lat":46.8148,"long":6.8889,"closestMainCity":{"city":"Yverdon-les-Bains","zipCode":1400,"lat":46.7785,"long":6.6411}},"1483":{"city":"Vesin","zipCode":1483,"lat":46.8105,"long":6.8752,"closestMainCity":{"city":"Yverdon-les-Bains","zipCode":1400,"lat":46.7785,"long":6.6411}},"1484":{"city":"Granges-de-Vesin","zipCode":1484,"lat":46.7989,"long":6.8503,"closestMainCity":{"city":"Yverdon-les-Bains","zipCode":1400,"lat":46.7785,"long":6.6411}},"1485":{"city":"Nuvilly","zipCode":1485,"lat":46.7834,"long":6.8278,"closestMainCity":{"city":"Yverdon-les-Bains","zipCode":1400,"lat":46.7785,"long":6.6411}},"1486":{"city":"Vuissens","zipCode":1486,"lat":46.7334,"long":6.7662,"closestMainCity":{"city":"Yverdon-les-Bains","zipCode":1400,"lat":46.7785,"long":6.6411}},"1489":{"city":"Murist","zipCode":1489,"lat":46.7902,"long":6.8071,"closestMainCity":{"city":"Yverdon-les-Bains","zipCode":1400,"lat":46.7785,"long":6.6411}},"1509":{"city":"Vucherens","zipCode":1509,"lat":46.627,"long":6.7758,"closestMainCity":{"city":"Lausanne","zipCode":1001,"lat":46.5218,"long":6.633}},"1510":{"city":"Moudon","zipCode":1510,"lat":46.6676,"long":6.7978,"closestMainCity":{"city":"Yverdon-les-Bains","zipCode":1400,"lat":46.7785,"long":6.6411}},"1512":{"city":"Chavannes-sur-Moudon","zipCode":1512,"lat":46.6587,"long":6.8096,"closestMainCity":{"city":"Yverdon-les-Bains","zipCode":1400,"lat":46.7785,"long":6.6411}},"1513":{"city":"Hermenches","zipCode":1513,"lat":46.6403,"long":6.7627,"closestMainCity":{"city":"Lausanne","zipCode":1001,"lat":46.5218,"long":6.633}},"1514":{"city":"Bussy-sur-Moudon","zipCode":1514,"lat":46.6905,"long":6.8096,"closestMainCity":{"city":"Yverdon-les-Bains","zipCode":1400,"lat":46.7785,"long":6.6411}},"1515":{"city":"Villars-le-Comte","zipCode":1515,"lat":46.7131,"long":6.8014,"closestMainCity":{"city":"Yverdon-les-Bains","zipCode":1400,"lat":46.7785,"long":6.6411}},"1521":{"city":"Curtilles","zipCode":1521,"lat":46.7004,"long":6.8506,"closestMainCity":{"city":"Yverdon-les-Bains","zipCode":1400,"lat":46.7785,"long":6.6411}},"1522":{"city":"Lucens","zipCode":1522,"lat":46.7085,"long":6.8393,"closestMainCity":{"city":"Yverdon-les-Bains","zipCode":1400,"lat":46.7785,"long":6.6411}},"1523":{"city":"Granges-près-Marnand","zipCode":1523,"lat":46.7765,"long":6.8959,"closestMainCity":{"city":"Yverdon-les-Bains","zipCode":1400,"lat":46.7785,"long":6.6411}},"1524":{"city":"Marnand","zipCode":1524,"lat":46.7573,"long":6.8991,"closestMainCity":{"city":"Bulle","zipCode":1630,"lat":46.618,"long":7.0569}},"1525":{"city":"Henniez","zipCode":1525,"lat":46.7422,"long":6.887,"closestMainCity":{"city":"Bulle","zipCode":1630,"lat":46.618,"long":7.0569}},"1526":{"city":"Cremin","zipCode":1526,"lat":46.7089,"long":6.8326,"closestMainCity":{"city":"Yverdon-les-Bains","zipCode":1400,"lat":46.7785,"long":6.6411}},"1527":{"city":"Villeneuve FR","zipCode":1527,"lat":46.7421,"long":6.8498,"closestMainCity":{"city":"Yverdon-les-Bains","zipCode":1400,"lat":46.7785,"long":6.6411}},"1528":{"city":"Praratoud","zipCode":1528,"lat":46.7353,"long":6.8489,"closestMainCity":{"city":"Yverdon-les-Bains","zipCode":1400,"lat":46.7785,"long":6.6411}},"1529":{"city":"Cheiry","zipCode":1529,"lat":46.7504,"long":6.8355,"closestMainCity":{"city":"Yverdon-les-Bains","zipCode":1400,"lat":46.7785,"long":6.6411}},"1530":{"city":"Payerne","zipCode":1530,"lat":46.8219,"long":6.9382,"closestMainCity":{"city":"Fribourg","zipCode":1700,"lat":46.8024,"long":7.1513}},"1532":{"city":"Fétigny","zipCode":1532,"lat":46.7982,"long":6.9117,"closestMainCity":{"city":"Fribourg","zipCode":1700,"lat":46.8024,"long":7.1513}},"1533":{"city":"Ménières","zipCode":1533,"lat":46.7827,"long":6.8801,"closestMainCity":{"city":"Yverdon-les-Bains","zipCode":1400,"lat":46.7785,"long":6.6411}},"1534":{"city":"Chapelle (Broye)","zipCode":1534,"lat":46.7714,"long":6.8524,"closestMainCity":{"city":"Yverdon-les-Bains","zipCode":1400,"lat":46.7785,"long":6.6411}},"1535":{"city":"Combremont-le-Grand","zipCode":1535,"lat":46.7617,"long":6.8182,"closestMainCity":{"city":"Yverdon-les-Bains","zipCode":1400,"lat":46.7785,"long":6.6411}},"1536":{"city":"Combremont-le-Petit","zipCode":1536,"lat":46.7494,"long":6.8093,"closestMainCity":{"city":"Yverdon-les-Bains","zipCode":1400,"lat":46.7785,"long":6.6411}},"1537":{"city":"Champtauroz","zipCode":1537,"lat":46.759,"long":6.7863,"closestMainCity":{"city":"Yverdon-les-Bains","zipCode":1400,"lat":46.7785,"long":6.6411}},"1538":{"city":"Treytorrens (Payerne)","zipCode":1538,"lat":46.7722,"long":6.8048,"closestMainCity":{"city":"Yverdon-les-Bains","zipCode":1400,"lat":46.7785,"long":6.6411}},"1541":{"city":"Morens FR","zipCode":1541,"lat":46.8436,"long":6.907,"closestMainCity":{"city":"Neuchâtel","zipCode":2000,"lat":46.9918,"long":6.931}},"1542":{"city":"Rueyres-les-Prés","zipCode":1542,"lat":46.857,"long":6.9111,"closestMainCity":{"city":"Neuchâtel","zipCode":2000,"lat":46.9918,"long":6.931}},"1543":{"city":"Grandcour","zipCode":1543,"lat":46.8719,"long":6.9284,"closestMainCity":{"city":"Neuchâtel","zipCode":2000,"lat":46.9918,"long":6.931}},"1544":{"city":"Gletterens","zipCode":1544,"lat":46.8949,"long":6.9369,"closestMainCity":{"city":"Neuchâtel","zipCode":2000,"lat":46.9918,"long":6.931}},"1545":{"city":"Chevroux","zipCode":1545,"lat":46.8884,"long":6.9069,"closestMainCity":{"city":"Neuchâtel","zipCode":2000,"lat":46.9918,"long":6.931}},"1551":{"city":"Vers-chez-Perrin","zipCode":1551,"lat":46.7977,"long":6.9436,"closestMainCity":{"city":"Fribourg","zipCode":1700,"lat":46.8024,"long":7.1513}},"1552":{"city":"Trey","zipCode":1552,"lat":46.7702,"long":6.9265,"closestMainCity":{"city":"Fribourg","zipCode":1700,"lat":46.8024,"long":7.1513}},"1553":{"city":"Châtonnaye","zipCode":1553,"lat":46.7545,"long":6.938,"closestMainCity":{"city":"Fribourg","zipCode":1700,"lat":46.8024,"long":7.1513}},"1554":{"city":"Sédeilles","zipCode":1554,"lat":46.7486,"long":6.9331,"closestMainCity":{"city":"Bulle","zipCode":1630,"lat":46.618,"long":7.0569}},"1555":{"city":"Villarzel","zipCode":1555,"lat":46.7476,"long":6.9122,"closestMainCity":{"city":"Bulle","zipCode":1630,"lat":46.618,"long":7.0569}},"1562":{"city":"Corcelles-près-Payerne","zipCode":1562,"lat":46.8332,"long":6.9623,"closestMainCity":{"city":"Fribourg","zipCode":1700,"lat":46.8024,"long":7.1513}},"1563":{"city":"Dompierre FR","zipCode":1563,"lat":46.8521,"long":6.9907,"closestMainCity":{"city":"Fribourg","zipCode":1700,"lat":46.8024,"long":7.1513}},"1564":{"city":"Domdidier","zipCode":1564,"lat":46.8672,"long":7.0134,"closestMainCity":{"city":"Fribourg","zipCode":1700,"lat":46.8024,"long":7.1513}},"1565":{"city":"Vallon","zipCode":1565,"lat":46.8838,"long":6.9554,"closestMainCity":{"city":"Neuchâtel","zipCode":2000,"lat":46.9918,"long":6.931}},"1566":{"city":"St-Aubin FR","zipCode":1566,"lat":46.89,"long":6.9805,"closestMainCity":{"city":"Neuchâtel","zipCode":2000,"lat":46.9918,"long":6.931}},"1567":{"city":"Delley","zipCode":1567,"lat":46.9198,"long":6.9577,"closestMainCity":{"city":"Neuchâtel","zipCode":2000,"lat":46.9918,"long":6.931}},"1568":{"city":"Portalban","zipCode":1568,"lat":46.9189,"long":6.9563,"closestMainCity":{"city":"Neuchâtel","zipCode":2000,"lat":46.9918,"long":6.931}},"1580":{"city":"Oleyres","zipCode":1580,"lat":46.8545,"long":7.0379,"closestMainCity":{"city":"Fribourg","zipCode":1700,"lat":46.8024,"long":7.1513}},"1583":{"city":"Villarepos","zipCode":1583,"lat":46.8643,"long":7.1264,"closestMainCity":{"city":"Fribourg","zipCode":1700,"lat":46.8024,"long":7.1513}},"1584":{"city":"Villars-le-Grand","zipCode":1584,"lat":46.9049,"long":6.99,"closestMainCity":{"city":"Neuchâtel","zipCode":2000,"lat":46.9918,"long":6.931}},"1585":{"city":"Cotterd","zipCode":1585,"lat":46.9209,"long":7.0224,"closestMainCity":{"city":"Neuchâtel","zipCode":2000,"lat":46.9918,"long":6.931}},"1586":{"city":"Vallamand","zipCode":1586,"lat":46.9293,"long":7.0403,"closestMainCity":{"city":"Neuchâtel","zipCode":2000,"lat":46.9918,"long":6.931}},"1587":{"city":"Constantine","zipCode":1587,"lat":46.9183,"long":7.0086,"closestMainCity":{"city":"Neuchâtel","zipCode":2000,"lat":46.9918,"long":6.931}},"1588":{"city":"Cudrefin","zipCode":1588,"lat":46.9558,"long":7.0185,"closestMainCity":{"city":"Neuchâtel","zipCode":2000,"lat":46.9918,"long":6.931}},"1589":{"city":"Chabrey","zipCode":1589,"lat":46.9269,"long":6.9816,"closestMainCity":{"city":"Neuchâtel","zipCode":2000,"lat":46.9918,"long":6.931}},"1595":{"city":"Clavaleyres","zipCode":1595,"lat":46.8991,"long":7.0928,"closestMainCity":{"city":"Fribourg","zipCode":1700,"lat":46.8024,"long":7.1513}},"1607":{"city":"Palézieux-Village","zipCode":1607,"lat":46.5553,"long":6.8311,"closestMainCity":{"city":"Montreux","zipCode":1820,"lat":46.433,"long":6.9114}},"1608":{"city":"Chapelle (Glâne)","zipCode":1608,"lat":46.5887,"long":6.8372,"closestMainCity":{"city":"Bulle","zipCode":1630,"lat":46.618,"long":7.0569}},"1609":{"city":"Besencens","zipCode":1609,"lat":46.5875,"long":6.8687,"closestMainCity":{"city":"Bulle","zipCode":1630,"lat":46.618,"long":7.0569}},"1610":{"city":"Oron-la-Ville","zipCode":1610,"lat":46.5709,"long":6.8256,"closestMainCity":{"city":"Lausanne","zipCode":1001,"lat":46.5218,"long":6.633}},"1611":{"city":"Le Crêt-près-Semsales","zipCode":1611,"lat":46.609,"long":6.9097,"closestMainCity":{"city":"Bulle","zipCode":1630,"lat":46.618,"long":7.0569}},"1612":{"city":"Ecoteaux","zipCode":1612,"lat":46.5469,"long":6.8641,"closestMainCity":{"city":"Montreux","zipCode":1820,"lat":46.433,"long":6.9114}},"1613":{"city":"Maracon","zipCode":1613,"lat":46.5501,"long":6.8722,"closestMainCity":{"city":"Montreux","zipCode":1820,"lat":46.433,"long":6.9114}},"1614":{"city":"Granges (Veveyse)","zipCode":1614,"lat":46.5261,"long":6.83,"closestMainCity":{"city":"Montreux","zipCode":1820,"lat":46.433,"long":6.9114}},"1615":{"city":"Bossonnens","zipCode":1615,"lat":46.5285,"long":6.8525,"closestMainCity":{"city":"Montreux","zipCode":1820,"lat":46.433,"long":6.9114}},"1616":{"city":"Attalens","zipCode":1616,"lat":46.5056,"long":6.8504,"closestMainCity":{"city":"Montreux","zipCode":1820,"lat":46.433,"long":6.9114}},"1617":{"city":"Tatroz","zipCode":1617,"lat":46.527,"long":6.8669,"closestMainCity":{"city":"Montreux","zipCode":1820,"lat":46.433,"long":6.9114}},"1618":{"city":"Châtel-St-Denis","zipCode":1618,"lat":46.5269,"long":6.9008,"closestMainCity":{"city":"Montreux","zipCode":1820,"lat":46.433,"long":6.9114}},"1619":{"city":"Les Paccots","zipCode":1619,"lat":46.5241,"long":6.9463,"closestMainCity":{"city":"Montreux","zipCode":1820,"lat":46.433,"long":6.9114}},"1623":{"city":"Semsales","zipCode":1623,"lat":46.5732,"long":6.9295,"closestMainCity":{"city":"Bulle","zipCode":1630,"lat":46.618,"long":7.0569}},"1624":{"city":"La Verrerie","zipCode":1624,"lat":46.5995,"long":6.9203,"closestMainCity":{"city":"Bulle","zipCode":1630,"lat":46.618,"long":7.0569}},"1625":{"city":"Sâles (Gruyère)","zipCode":1625,"lat":46.6347,"long":6.9734,"closestMainCity":{"city":"Bulle","zipCode":1630,"lat":46.618,"long":7.0569}},"1626":{"city":"Treyfayes","zipCode":1626,"lat":46.6541,"long":6.9533,"closestMainCity":{"city":"Bulle","zipCode":1630,"lat":46.618,"long":7.0569}},"1627":{"city":"Vaulruz","zipCode":1627,"lat":46.6216,"long":6.9882,"closestMainCity":{"city":"Bulle","zipCode":1630,"lat":46.618,"long":7.0569}},"1628":{"city":"Vuadens","zipCode":1628,"lat":46.6155,"long":7.0173,"closestMainCity":{"city":"Bulle","zipCode":1630,"lat":46.618,"long":7.0569}},"1630":{"city":"Bulle","zipCode":1630,"lat":46.618,"long":7.0569,"closestMainCity":{"city":"Bulle","zipCode":1630,"lat":46.618,"long":7.0569}},"1632":{"city":"Riaz","zipCode":1632,"lat":46.6422,"long":7.0618,"closestMainCity":{"city":"Bulle","zipCode":1630,"lat":46.618,"long":7.0569}},"1633":{"city":"Vuippens","zipCode":1633,"lat":46.66,"long":7.0746,"closestMainCity":{"city":"Bulle","zipCode":1630,"lat":46.618,"long":7.0569}},"1634":{"city":"La Roche FR","zipCode":1634,"lat":46.6962,"long":7.1372,"closestMainCity":{"city":"Bulle","zipCode":1630,"lat":46.618,"long":7.0569}},"1635":{"city":"La Tour-de-Trême","zipCode":1635,"lat":46.6106,"long":7.065,"closestMainCity":{"city":"Bulle","zipCode":1630,"lat":46.618,"long":7.0569}},"1636":{"city":"Broc","zipCode":1636,"lat":46.6051,"long":7.0989,"closestMainCity":{"city":"Bulle","zipCode":1630,"lat":46.618,"long":7.0569}},"1637":{"city":"Charmey (Gruyère)","zipCode":1637,"lat":46.6196,"long":7.1649,"closestMainCity":{"city":"Bulle","zipCode":1630,"lat":46.618,"long":7.0569}},"1638":{"city":"Morlon","zipCode":1638,"lat":46.6256,"long":7.0838,"closestMainCity":{"city":"Bulle","zipCode":1630,"lat":46.618,"long":7.0569}},"1642":{"city":"Sorens","zipCode":1642,"lat":46.6691,"long":7.0525,"closestMainCity":{"city":"Bulle","zipCode":1630,"lat":46.618,"long":7.0569}},"1643":{"city":"Gumefens","zipCode":1643,"lat":46.6779,"long":7.0766,"closestMainCity":{"city":"Bulle","zipCode":1630,"lat":46.618,"long":7.0569}},"1644":{"city":"Avry-devant-Pont","zipCode":1644,"lat":46.6871,"long":7.0876,"closestMainCity":{"city":"Bulle","zipCode":1630,"lat":46.618,"long":7.0569}},"1645":{"city":"Le Bry","zipCode":1645,"lat":46.7046,"long":7.0825,"closestMainCity":{"city":"Bulle","zipCode":1630,"lat":46.618,"long":7.0569}},"1646":{"city":"Echarlens","zipCode":1646,"lat":46.6478,"long":7.0742,"closestMainCity":{"city":"Bulle","zipCode":1630,"lat":46.618,"long":7.0569}},"1647":{"city":"Corbières","zipCode":1647,"lat":46.6595,"long":7.101,"closestMainCity":{"city":"Bulle","zipCode":1630,"lat":46.618,"long":7.0569}},"1648":{"city":"Hauteville","zipCode":1648,"lat":46.6701,"long":7.1104,"closestMainCity":{"city":"Bulle","zipCode":1630,"lat":46.618,"long":7.0569}},"1649":{"city":"Pont-la-Ville","zipCode":1649,"lat":46.7,"long":7.1,"closestMainCity":{"city":"Bulle","zipCode":1630,"lat":46.618,"long":7.0569}},"1651":{"city":"Villarvolard","zipCode":1651,"lat":46.6453,"long":7.1074,"closestMainCity":{"city":"Bulle","zipCode":1630,"lat":46.618,"long":7.0569}},"1652":{"city":"Villarbeney","zipCode":1652,"lat":46.6302,"long":7.1095,"closestMainCity":{"city":"Bulle","zipCode":1630,"lat":46.618,"long":7.0569}},"1653":{"city":"Châtel-sur-Montsalvens","zipCode":1653,"lat":46.6165,"long":7.1327,"closestMainCity":{"city":"Bulle","zipCode":1630,"lat":46.618,"long":7.0569}},"1654":{"city":"Cerniat FR","zipCode":1654,"lat":46.6333,"long":7.1573,"closestMainCity":{"city":"Bulle","zipCode":1630,"lat":46.618,"long":7.0569}},"1656":{"city":"Jaun","zipCode":1656,"lat":46.6113,"long":7.2759,"closestMainCity":{"city":"Bulle","zipCode":1630,"lat":46.618,"long":7.0569}},"1657":{"city":"Abländschen","zipCode":1657,"lat":46.5724,"long":7.2892,"closestMainCity":{"city":"Bulle","zipCode":1630,"lat":46.618,"long":7.0569}},"1658":{"city":"La Tine","zipCode":1658,"lat":46.4696,"long":7.0522,"closestMainCity":{"city":"Montreux","zipCode":1820,"lat":46.433,"long":6.9114}},"1659":{"city":"Rougemont","zipCode":1659,"lat":46.4881,"long":7.2066,"closestMainCity":{"city":"Bulle","zipCode":1630,"lat":46.618,"long":7.0569}},"1660":{"city":"La Lécherette","zipCode":1660,"lat":46.4199,"long":7.1073,"closestMainCity":{"city":"Montreux","zipCode":1820,"lat":46.433,"long":6.9114}},"1661":{"city":"Le Pâquier-Montbarry","zipCode":1661,"lat":46.5948,"long":7.0533,"closestMainCity":{"city":"Bulle","zipCode":1630,"lat":46.618,"long":7.0569}},"1663":{"city":"Gruyères","zipCode":1663,"lat":46.5834,"long":7.0821,"closestMainCity":{"city":"Bulle","zipCode":1630,"lat":46.618,"long":7.0569}},"1665":{"city":"Estavannens","zipCode":1665,"lat":46.5605,"long":7.1019,"closestMainCity":{"city":"Bulle","zipCode":1630,"lat":46.618,"long":7.0569}},"1666":{"city":"Villars-sous-Mont","zipCode":1666,"lat":46.5412,"long":7.0704,"closestMainCity":{"city":"Bulle","zipCode":1630,"lat":46.618,"long":7.0569}},"1667":{"city":"Enney","zipCode":1667,"lat":46.5667,"long":7.0842,"closestMainCity":{"city":"Bulle","zipCode":1630,"lat":46.618,"long":7.0569}},"1669":{"city":"Neirivue","zipCode":1669,"lat":46.525,"long":7.0582,"closestMainCity":{"city":"Bulle","zipCode":1630,"lat":46.618,"long":7.0569}},"1670":{"city":"Esmonts","zipCode":1670,"lat":46.6432,"long":6.8451,"closestMainCity":{"city":"Bulle","zipCode":1630,"lat":46.618,"long":7.0569}},"1673":{"city":"Auboranges","zipCode":1673,"lat":46.5846,"long":6.8045,"closestMainCity":{"city":"Lausanne","zipCode":1001,"lat":46.5218,"long":6.633}},"1674":{"city":"Montet (Glâne)","zipCode":1674,"lat":46.6413,"long":6.813,"closestMainCity":{"city":"Bulle","zipCode":1630,"lat":46.618,"long":7.0569}},"1675":{"city":"Vauderens","zipCode":1675,"lat":46.6228,"long":6.8507,"closestMainCity":{"city":"Bulle","zipCode":1630,"lat":46.618,"long":7.0569}},"1676":{"city":"Chavannes-les-Forts","zipCode":1676,"lat":46.653,"long":6.8985,"closestMainCity":{"city":"Bulle","zipCode":1630,"lat":46.618,"long":7.0569}},"1677":{"city":"Prez-vers-Siviriez","zipCode":1677,"lat":46.6397,"long":6.8748,"closestMainCity":{"city":"Bulle","zipCode":1630,"lat":46.618,"long":7.0569}},"1678":{"city":"Siviriez","zipCode":1678,"lat":46.6585,"long":6.8777,"closestMainCity":{"city":"Bulle","zipCode":1630,"lat":46.618,"long":7.0569}},"1679":{"city":"Villaraboud","zipCode":1679,"lat":46.6607,"long":6.9135,"closestMainCity":{"city":"Bulle","zipCode":1630,"lat":46.618,"long":7.0569}},"1680":{"city":"Romont FR","zipCode":1680,"lat":46.6965,"long":6.919,"closestMainCity":{"city":"Bulle","zipCode":1630,"lat":46.618,"long":7.0569}},"1681":{"city":"Hennens","zipCode":1681,"lat":46.6837,"long":6.8864,"closestMainCity":{"city":"Bulle","zipCode":1630,"lat":46.618,"long":7.0569}},"1682":{"city":"Prévonloup","zipCode":1682,"lat":46.6979,"long":6.8828,"closestMainCity":{"city":"Bulle","zipCode":1630,"lat":46.618,"long":7.0569}},"1683":{"city":"Chesalles-sur-Moudon","zipCode":1683,"lat":46.6762,"long":6.8506,"closestMainCity":{"city":"Bulle","zipCode":1630,"lat":46.618,"long":7.0569}},"1684":{"city":"Mézières FR","zipCode":1684,"lat":46.6796,"long":6.9263,"closestMainCity":{"city":"Bulle","zipCode":1630,"lat":46.618,"long":7.0569}},"1685":{"city":"Villariaz","zipCode":1685,"lat":46.6662,"long":6.9409,"closestMainCity":{"city":"Bulle","zipCode":1630,"lat":46.618,"long":7.0569}},"1686":{"city":"Grangettes-près-Romont","zipCode":1686,"lat":46.6717,"long":6.9753,"closestMainCity":{"city":"Bulle","zipCode":1630,"lat":46.618,"long":7.0569}},"1687":{"city":"La Magne","zipCode":1687,"lat":46.6347,"long":6.9323,"closestMainCity":{"city":"Bulle","zipCode":1630,"lat":46.618,"long":7.0569}},"1688":{"city":"Lieffrens","zipCode":1688,"lat":46.638,"long":6.9017,"closestMainCity":{"city":"Bulle","zipCode":1630,"lat":46.618,"long":7.0569}},"1689":{"city":"Le Châtelard-près-Romont","zipCode":1689,"lat":46.6804,"long":6.9792,"closestMainCity":{"city":"Bulle","zipCode":1630,"lat":46.618,"long":7.0569}},"1690":{"city":"Villaz-St-Pierre","zipCode":1690,"lat":46.7207,"long":6.9564,"closestMainCity":{"city":"Bulle","zipCode":1630,"lat":46.618,"long":7.0569}},"1691":{"city":"Villarimboud","zipCode":1691,"lat":46.7417,"long":6.9652,"closestMainCity":{"city":"Bulle","zipCode":1630,"lat":46.618,"long":7.0569}},"1692":{"city":"Massonnens","zipCode":1692,"lat":46.6966,"long":6.9762,"closestMainCity":{"city":"Bulle","zipCode":1630,"lat":46.618,"long":7.0569}},"1694":{"city":"Villargiroud","zipCode":1694,"lat":46.7055,"long":7.0022,"closestMainCity":{"city":"Bulle","zipCode":1630,"lat":46.618,"long":7.0569}},"1695":{"city":"Villarsel-le-Gibloux","zipCode":1695,"lat":46.713,"long":7.0177,"closestMainCity":{"city":"Bulle","zipCode":1630,"lat":46.618,"long":7.0569}},"1696":{"city":"Vuisternens-en-Ogoz","zipCode":1696,"lat":46.7081,"long":7.054,"closestMainCity":{"city":"Bulle","zipCode":1630,"lat":46.618,"long":7.0569}},"1697":{"city":"Les Ecasseys","zipCode":1697,"lat":46.623,"long":6.9108,"closestMainCity":{"city":"Bulle","zipCode":1630,"lat":46.618,"long":7.0569}},"1699":{"city":"Pont (Veveyse)","zipCode":1699,"lat":46.5885,"long":6.8513,"closestMainCity":{"city":"Bulle","zipCode":1630,"lat":46.618,"long":7.0569}},"1700":{"city":"Fribourg","zipCode":1700,"lat":46.8024,"long":7.1513,"closestMainCity":{"city":"Fribourg","zipCode":1700,"lat":46.8024,"long":7.1513}},"1712":{"city":"Tafers","zipCode":1712,"lat":46.8148,"long":7.2185,"closestMainCity":{"city":"Fribourg","zipCode":1700,"lat":46.8024,"long":7.1513}},"1713":{"city":"St. Antoni","zipCode":1713,"lat":46.8221,"long":7.2609,"closestMainCity":{"city":"Fribourg","zipCode":1700,"lat":46.8024,"long":7.1513}},"1714":{"city":"Heitenried","zipCode":1714,"lat":46.8276,"long":7.2994,"closestMainCity":{"city":"Fribourg","zipCode":1700,"lat":46.8024,"long":7.1513}},"1715":{"city":"Alterswil FR","zipCode":1715,"lat":46.7959,"long":7.2588,"closestMainCity":{"city":"Fribourg","zipCode":1700,"lat":46.8024,"long":7.1513}},"1716":{"city":"Plaffeien","zipCode":1716,"lat":46.742,"long":7.2867,"closestMainCity":{"city":"Fribourg","zipCode":1700,"lat":46.8024,"long":7.1513}},"1717":{"city":"St. Ursen","zipCode":1717,"lat":46.7869,"long":7.2243,"closestMainCity":{"city":"Fribourg","zipCode":1700,"lat":46.8024,"long":7.1513}},"1718":{"city":"Rechthalten","zipCode":1718,"lat":46.7677,"long":7.2403,"closestMainCity":{"city":"Fribourg","zipCode":1700,"lat":46.8024,"long":7.1513}},"1719":{"city":"Zumholz","zipCode":1719,"lat":46.6871,"long":7.3155,"closestMainCity":{"city":"Fribourg","zipCode":1700,"lat":46.8024,"long":7.1513}},"1720":{"city":"Corminboeuf","zipCode":1720,"lat":46.8103,"long":7.1054,"closestMainCity":{"city":"Fribourg","zipCode":1700,"lat":46.8024,"long":7.1513}},"1721":{"city":"Cournillens","zipCode":1721,"lat":46.8587,"long":7.1026,"closestMainCity":{"city":"Fribourg","zipCode":1700,"lat":46.8024,"long":7.1513}},"1722":{"city":"Bourguillon","zipCode":1722,"lat":46.8013,"long":7.1777,"closestMainCity":{"city":"Fribourg","zipCode":1700,"lat":46.8024,"long":7.1513}},"1723":{"city":"Marly","zipCode":1723,"lat":46.7761,"long":7.1646,"closestMainCity":{"city":"Fribourg","zipCode":1700,"lat":46.8024,"long":7.1513}},"1724":{"city":"Le Mouret","zipCode":1724,"lat":46.7318,"long":7.1875,"closestMainCity":{"city":"Fribourg","zipCode":1700,"lat":46.8024,"long":7.1513}},"1725":{"city":"Posieux","zipCode":1725,"lat":46.7623,"long":7.0971,"closestMainCity":{"city":"Fribourg","zipCode":1700,"lat":46.8024,"long":7.1513}},"1726":{"city":"Grenilles","zipCode":1726,"lat":46.7285,"long":7.0503,"closestMainCity":{"city":"Fribourg","zipCode":1700,"lat":46.8024,"long":7.1513}},"1727":{"city":"Corpataux","zipCode":1727,"lat":46.7433,"long":7.0971,"closestMainCity":{"city":"Fribourg","zipCode":1700,"lat":46.8024,"long":7.1513}},"1728":{"city":"Rossens FR","zipCode":1728,"lat":46.7201,"long":7.1034,"closestMainCity":{"city":"Fribourg","zipCode":1700,"lat":46.8024,"long":7.1513}},"1730":{"city":"Ecuvillens","zipCode":1730,"lat":46.7578,"long":7.0828,"closestMainCity":{"city":"Fribourg","zipCode":1700,"lat":46.8024,"long":7.1513}},"1731":{"city":"Ependes FR","zipCode":1731,"lat":46.7537,"long":7.1461,"closestMainCity":{"city":"Fribourg","zipCode":1700,"lat":46.8024,"long":7.1513}},"1732":{"city":"Arconciel","zipCode":1732,"lat":46.7473,"long":7.1215,"closestMainCity":{"city":"Fribourg","zipCode":1700,"lat":46.8024,"long":7.1513}},"1733":{"city":"Treyvaux","zipCode":1733,"lat":46.728,"long":7.1377,"closestMainCity":{"city":"Fribourg","zipCode":1700,"lat":46.8024,"long":7.1513}},"1734":{"city":"Tentlingen","zipCode":1734,"lat":46.7692,"long":7.1977,"closestMainCity":{"city":"Fribourg","zipCode":1700,"lat":46.8024,"long":7.1513}},"1735":{"city":"Giffers","zipCode":1735,"lat":46.7623,"long":7.2085,"closestMainCity":{"city":"Fribourg","zipCode":1700,"lat":46.8024,"long":7.1513}},"1736":{"city":"St. Silvester","zipCode":1736,"lat":46.7425,"long":7.224,"closestMainCity":{"city":"Fribourg","zipCode":1700,"lat":46.8024,"long":7.1513}},"1737":{"city":"Plasselb","zipCode":1737,"lat":46.7349,"long":7.2512,"closestMainCity":{"city":"Fribourg","zipCode":1700,"lat":46.8024,"long":7.1513}},"1738":{"city":"Sangernboden","zipCode":1738,"lat":46.7133,"long":7.3519,"closestMainCity":{"city":"Fribourg","zipCode":1700,"lat":46.8024,"long":7.1513}},"1740":{"city":"Neyruz FR","zipCode":1740,"lat":46.7681,"long":7.0669,"closestMainCity":{"city":"Fribourg","zipCode":1700,"lat":46.8024,"long":7.1513}},"1741":{"city":"Cottens FR","zipCode":1741,"lat":46.7522,"long":7.0313,"closestMainCity":{"city":"Fribourg","zipCode":1700,"lat":46.8024,"long":7.1513}},"1742":{"city":"Autigny","zipCode":1742,"lat":46.7366,"long":7.02,"closestMainCity":{"city":"Fribourg","zipCode":1700,"lat":46.8024,"long":7.1513}},"1744":{"city":"Chénens","zipCode":1744,"lat":46.7416,"long":7.004,"closestMainCity":{"city":"Fribourg","zipCode":1700,"lat":46.8024,"long":7.1513}},"1745":{"city":"Lentigny","zipCode":1745,"lat":46.7611,"long":7.0029,"closestMainCity":{"city":"Fribourg","zipCode":1700,"lat":46.8024,"long":7.1513}},"1746":{"city":"Prez-vers-Noréaz","zipCode":1746,"lat":46.7854,"long":7.0158,"closestMainCity":{"city":"Fribourg","zipCode":1700,"lat":46.8024,"long":7.1513}},"1747":{"city":"Corserey","zipCode":1747,"lat":46.7731,"long":6.9887,"closestMainCity":{"city":"Fribourg","zipCode":1700,"lat":46.8024,"long":7.1513}},"1748":{"city":"Torny-le-Grand","zipCode":1748,"lat":46.772,"long":6.9667,"closestMainCity":{"city":"Fribourg","zipCode":1700,"lat":46.8024,"long":7.1513}},"1749":{"city":"Middes","zipCode":1749,"lat":46.7692,"long":6.9502,"closestMainCity":{"city":"Fribourg","zipCode":1700,"lat":46.8024,"long":7.1513}},"1752":{"city":"Villars-sur-Glâne","zipCode":1752,"lat":46.7905,"long":7.1172,"closestMainCity":{"city":"Fribourg","zipCode":1700,"lat":46.8024,"long":7.1513}},"1753":{"city":"Matran","zipCode":1753,"lat":46.7859,"long":7.0977,"closestMainCity":{"city":"Fribourg","zipCode":1700,"lat":46.8024,"long":7.1513}},"1754":{"city":"Avry-sur-Matran","zipCode":1754,"lat":46.7875,"long":7.0673,"closestMainCity":{"city":"Fribourg","zipCode":1700,"lat":46.8024,"long":7.1513}},"1756":{"city":"Onnens FR","zipCode":1756,"lat":46.7747,"long":7.0371,"closestMainCity":{"city":"Fribourg","zipCode":1700,"lat":46.8024,"long":7.1513}},"1757":{"city":"Noréaz","zipCode":1757,"lat":46.8015,"long":7.0278,"closestMainCity":{"city":"Fribourg","zipCode":1700,"lat":46.8024,"long":7.1513}},"1762":{"city":"Givisiez","zipCode":1762,"lat":46.812,"long":7.1264,"closestMainCity":{"city":"Fribourg","zipCode":1700,"lat":46.8024,"long":7.1513}},"1763":{"city":"Granges-Paccot","zipCode":1763,"lat":46.8267,"long":7.1425,"closestMainCity":{"city":"Fribourg","zipCode":1700,"lat":46.8024,"long":7.1513}},"1772":{"city":"Grolley","zipCode":1772,"lat":46.8336,"long":7.0712,"closestMainCity":{"city":"Fribourg","zipCode":1700,"lat":46.8024,"long":7.1513}},"1773":{"city":"Russy","zipCode":1773,"lat":46.8413,"long":7.0035,"closestMainCity":{"city":"Fribourg","zipCode":1700,"lat":46.8024,"long":7.1513}},"1774":{"city":"Montagny-les-Monts","zipCode":1774,"lat":46.8107,"long":6.9915,"closestMainCity":{"city":"Fribourg","zipCode":1700,"lat":46.8024,"long":7.1513}},"1775":{"city":"Grandsivaz","zipCode":1775,"lat":46.785,"long":6.9808,"closestMainCity":{"city":"Fribourg","zipCode":1700,"lat":46.8024,"long":7.1513}},"1776":{"city":"Montagny-la-Ville","zipCode":1776,"lat":46.8175,"long":6.9957,"closestMainCity":{"city":"Fribourg","zipCode":1700,"lat":46.8024,"long":7.1513}},"1782":{"city":"Autafond","zipCode":1782,"lat":46.8288,"long":7.095,"closestMainCity":{"city":"Fribourg","zipCode":1700,"lat":46.8024,"long":7.1513}},"1783":{"city":"Barberêche","zipCode":1783,"lat":46.8643,"long":7.1264,"closestMainCity":{"city":"Fribourg","zipCode":1700,"lat":46.8024,"long":7.1513}},"1784":{"city":"Courtepin","zipCode":1784,"lat":46.8655,"long":7.1231,"closestMainCity":{"city":"Fribourg","zipCode":1700,"lat":46.8024,"long":7.1513}},"1785":{"city":"Cressier FR","zipCode":1785,"lat":46.8979,"long":7.1407,"closestMainCity":{"city":"Fribourg","zipCode":1700,"lat":46.8024,"long":7.1513}},"1786":{"city":"Sugiez","zipCode":1786,"lat":46.9619,"long":7.1129,"closestMainCity":{"city":"Neuchâtel","zipCode":2000,"lat":46.9918,"long":6.931}},"1787":{"city":"Môtier (Vully)","zipCode":1787,"lat":46.9495,"long":7.084,"closestMainCity":{"city":"Neuchâtel","zipCode":2000,"lat":46.9918,"long":6.931}},"1788":{"city":"Praz (Vully)","zipCode":1788,"lat":46.9531,"long":7.098,"closestMainCity":{"city":"Neuchâtel","zipCode":2000,"lat":46.9918,"long":6.931}},"1789":{"city":"Lugnorre","zipCode":1789,"lat":46.951,"long":7.0749,"closestMainCity":{"city":"Neuchâtel","zipCode":2000,"lat":46.9918,"long":6.931}},"1791":{"city":"Courtaman","zipCode":1791,"lat":46.8734,"long":7.1316,"closestMainCity":{"city":"Fribourg","zipCode":1700,"lat":46.8024,"long":7.1513}},"1792":{"city":"Guschelmuth","zipCode":1792,"lat":46.8866,"long":7.1433,"closestMainCity":{"city":"Fribourg","zipCode":1700,"lat":46.8024,"long":7.1513}},"1793":{"city":"Jeuss","zipCode":1793,"lat":46.9365,"long":7.1412,"closestMainCity":{"city":"Fribourg","zipCode":1700,"lat":46.8024,"long":7.1513}},"1794":{"city":"Salvenach","zipCode":1794,"lat":46.9365,"long":7.1412,"closestMainCity":{"city":"Fribourg","zipCode":1700,"lat":46.8024,"long":7.1513}},"1795":{"city":"Courlevon","zipCode":1795,"lat":46.9365,"long":7.1412,"closestMainCity":{"city":"Fribourg","zipCode":1700,"lat":46.8024,"long":7.1513}},"1796":{"city":"Courgevaux","zipCode":1796,"lat":46.9065,"long":7.1121,"closestMainCity":{"city":"Fribourg","zipCode":1700,"lat":46.8024,"long":7.1513}},"1797":{"city":"Münchenwiler","zipCode":1797,"lat":46.9133,"long":7.1256,"closestMainCity":{"city":"Fribourg","zipCode":1700,"lat":46.8024,"long":7.1513}},"1800":{"city":"Vevey","zipCode":1800,"lat":46.463,"long":6.8435,"closestMainCity":{"city":"Montreux","zipCode":1820,"lat":46.433,"long":6.9114}},"1801":{"city":"Le Mont-Pèlerin","zipCode":1801,"lat":46.4886,"long":6.8216,"closestMainCity":{"city":"Montreux","zipCode":1820,"lat":46.433,"long":6.9114}},"1802":{"city":"Corseaux","zipCode":1802,"lat":46.4722,"long":6.8294,"closestMainCity":{"city":"Montreux","zipCode":1820,"lat":46.433,"long":6.9114}},"1803":{"city":"Chardonne","zipCode":1803,"lat":46.4768,"long":6.8268,"closestMainCity":{"city":"Montreux","zipCode":1820,"lat":46.433,"long":6.9114}},"1804":{"city":"Corsier-sur-Vevey","zipCode":1804,"lat":46.4944,"long":6.871,"closestMainCity":{"city":"Montreux","zipCode":1820,"lat":46.433,"long":6.9114}},"1805":{"city":"Jongny","zipCode":1805,"lat":46.4788,"long":6.8411,"closestMainCity":{"city":"Montreux","zipCode":1820,"lat":46.433,"long":6.9114}},"1806":{"city":"St-Légier-La Chiésaz","zipCode":1806,"lat":46.4723,"long":6.8737,"closestMainCity":{"city":"Montreux","zipCode":1820,"lat":46.433,"long":6.9114}},"1807":{"city":"Blonay","zipCode":1807,"lat":46.4678,"long":6.8962,"closestMainCity":{"city":"Montreux","zipCode":1820,"lat":46.433,"long":6.9114}},"1808":{"city":"Les Monts-de-Corsier","zipCode":1808,"lat":46.5044,"long":6.8807,"closestMainCity":{"city":"Montreux","zipCode":1820,"lat":46.433,"long":6.9114}},"1809":{"city":"Fenil-sur-Corsier","zipCode":1809,"lat":46.4836,"long":6.8635,"closestMainCity":{"city":"Montreux","zipCode":1820,"lat":46.433,"long":6.9114}},"1811":{"city":"Vevey","zipCode":1811,"lat":46.4642,"long":6.8481,"closestMainCity":{"city":"Montreux","zipCode":1820,"lat":46.433,"long":6.9114}},"1814":{"city":"La Tour-de-Peilz","zipCode":1814,"lat":46.4531,"long":6.8586,"closestMainCity":{"city":"Montreux","zipCode":1820,"lat":46.433,"long":6.9114}},"1815":{"city":"Clarens","zipCode":1815,"lat":46.4405,"long":6.8923,"closestMainCity":{"city":"Montreux","zipCode":1820,"lat":46.433,"long":6.9114}},"1816":{"city":"Chailly-Montreux","zipCode":1816,"lat":46.4543,"long":6.8928,"closestMainCity":{"city":"Montreux","zipCode":1820,"lat":46.433,"long":6.9114}},"1817":{"city":"Brent","zipCode":1817,"lat":46.4593,"long":6.9032,"closestMainCity":{"city":"Montreux","zipCode":1820,"lat":46.433,"long":6.9114}},"1818":{"city":"Montreux Redoute","zipCode":1818,"lat":46.4518,"long":6.9408,"closestMainCity":{"city":"Montreux","zipCode":1820,"lat":46.433,"long":6.9114}},"1820":{"city":"Montreux","zipCode":1820,"lat":46.433,"long":6.9114,"closestMainCity":{"city":"Montreux","zipCode":1820,"lat":46.433,"long":6.9114}},"1822":{"city":"Chernex","zipCode":1822,"lat":46.4439,"long":6.9115,"closestMainCity":{"city":"Montreux","zipCode":1820,"lat":46.433,"long":6.9114}},"1823":{"city":"Glion","zipCode":1823,"lat":46.4336,"long":6.9262,"closestMainCity":{"city":"Montreux","zipCode":1820,"lat":46.433,"long":6.9114}},"1824":{"city":"Caux","zipCode":1824,"lat":46.4324,"long":6.9386,"closestMainCity":{"city":"Montreux","zipCode":1820,"lat":46.433,"long":6.9114}},"1832":{"city":"Villard-sur-Chamby","zipCode":1832,"lat":46.4722,"long":6.929,"closestMainCity":{"city":"Montreux","zipCode":1820,"lat":46.433,"long":6.9114}},"1833":{"city":"Les Avants","zipCode":1833,"lat":46.453,"long":6.9431,"closestMainCity":{"city":"Montreux","zipCode":1820,"lat":46.433,"long":6.9114}},"1844":{"city":"Villeneuve VD","zipCode":1844,"lat":46.3987,"long":6.9265,"closestMainCity":{"city":"Montreux","zipCode":1820,"lat":46.433,"long":6.9114}},"1845":{"city":"Noville","zipCode":1845,"lat":46.3815,"long":6.9001,"closestMainCity":{"city":"Montreux","zipCode":1820,"lat":46.433,"long":6.9114}},"1846":{"city":"Chessel","zipCode":1846,"lat":46.3496,"long":6.897,"closestMainCity":{"city":"Montreux","zipCode":1820,"lat":46.433,"long":6.9114}},"1847":{"city":"Rennaz","zipCode":1847,"lat":46.3748,"long":6.916,"closestMainCity":{"city":"Montreux","zipCode":1820,"lat":46.433,"long":6.9114}},"1852":{"city":"Roche VD","zipCode":1852,"lat":46.3609,"long":6.9327,"closestMainCity":{"city":"Montreux","zipCode":1820,"lat":46.433,"long":6.9114}},"1853":{"city":"Yvorne","zipCode":1853,"lat":46.3312,"long":6.9587,"closestMainCity":{"city":"Monthey","zipCode":1870,"lat":46.2545,"long":6.9541}},"1854":{"city":"Leysin","zipCode":1854,"lat":46.3418,"long":7.0115,"closestMainCity":{"city":"Monthey","zipCode":1870,"lat":46.2545,"long":6.9541}},"1856":{"city":"Corbeyrier","zipCode":1856,"lat":46.3501,"long":6.9602,"closestMainCity":{"city":"Montreux","zipCode":1820,"lat":46.433,"long":6.9114}},"1860":{"city":"Aigle","zipCode":1860,"lat":46.3181,"long":6.9646,"closestMainCity":{"city":"Monthey","zipCode":1870,"lat":46.2545,"long":6.9541}},"1862":{"city":"Les Mosses","zipCode":1862,"lat":46.3953,"long":7.1006,"closestMainCity":{"city":"Montreux","zipCode":1820,"lat":46.433,"long":6.9114}},"1863":{"city":"Le Sépey","zipCode":1863,"lat":46.3614,"long":7.05,"closestMainCity":{"city":"Montreux","zipCode":1820,"lat":46.433,"long":6.9114}},"1864":{"city":"Vers-l'Eglise","zipCode":1864,"lat":46.3537,"long":7.1316,"closestMainCity":{"city":"Monthey","zipCode":1870,"lat":46.2545,"long":6.9541}},"1865":{"city":"Les Diablerets","zipCode":1865,"lat":46.35,"long":7.159,"closestMainCity":{"city":"Monthey","zipCode":1870,"lat":46.2545,"long":6.9541}},"1866":{"city":"La Forclaz VD","zipCode":1866,"lat":46.3507,"long":7.0689,"closestMainCity":{"city":"Monthey","zipCode":1870,"lat":46.2545,"long":6.9541}},"1867":{"city":"Panex","zipCode":1867,"lat":46.3118,"long":7.0137,"closestMainCity":{"city":"Monthey","zipCode":1870,"lat":46.2545,"long":6.9541}},"1868":{"city":"Collombey","zipCode":1868,"lat":46.2739,"long":6.9479,"closestMainCity":{"city":"Monthey","zipCode":1870,"lat":46.2545,"long":6.9541}},"1869":{"city":"Massongex","zipCode":1869,"lat":46.2427,"long":6.9888,"closestMainCity":{"city":"Monthey","zipCode":1870,"lat":46.2545,"long":6.9541}},"1870":{"city":"Monthey","zipCode":1870,"lat":46.2545,"long":6.9541,"closestMainCity":{"city":"Monthey","zipCode":1870,"lat":46.2545,"long":6.9541}},"1871":{"city":"Les Giettes","zipCode":1871,"lat":46.2275,"long":6.9583,"closestMainCity":{"city":"Monthey","zipCode":1870,"lat":46.2545,"long":6.9541}},"1872":{"city":"Troistorrents","zipCode":1872,"lat":46.2289,"long":6.9159,"closestMainCity":{"city":"Monthey","zipCode":1870,"lat":46.2545,"long":6.9541}},"1873":{"city":"Val-d'Illiez","zipCode":1873,"lat":46.2036,"long":6.891,"closestMainCity":{"city":"Monthey","zipCode":1870,"lat":46.2545,"long":6.9541}},"1874":{"city":"Champéry","zipCode":1874,"lat":46.1754,"long":6.869,"closestMainCity":{"city":"Monthey","zipCode":1870,"lat":46.2545,"long":6.9541}},"1875":{"city":"Morgins","zipCode":1875,"lat":46.239,"long":6.852,"closestMainCity":{"city":"Monthey","zipCode":1870,"lat":46.2545,"long":6.9541}},"1880":{"city":"Les Plans-sur-Bex","zipCode":1880,"lat":46.2574,"long":7.0934,"closestMainCity":{"city":"Monthey","zipCode":1870,"lat":46.2545,"long":6.9541}},"1882":{"city":"Gryon","zipCode":1882,"lat":46.2738,"long":7.0597,"closestMainCity":{"city":"Monthey","zipCode":1870,"lat":46.2545,"long":6.9541}},"1884":{"city":"Villars-sur-Ollon","zipCode":1884,"lat":46.2983,"long":7.0563,"closestMainCity":{"city":"Monthey","zipCode":1870,"lat":46.2545,"long":6.9541}},"1885":{"city":"Chesières","zipCode":1885,"lat":46.3024,"long":7.0441,"closestMainCity":{"city":"Monthey","zipCode":1870,"lat":46.2545,"long":6.9541}},"1890":{"city":"St-Maurice","zipCode":1890,"lat":46.2183,"long":7.0032,"closestMainCity":{"city":"Monthey","zipCode":1870,"lat":46.2545,"long":6.9541}},"1891":{"city":"Vérossaz","zipCode":1891,"lat":46.2122,"long":6.9863,"closestMainCity":{"city":"Monthey","zipCode":1870,"lat":46.2545,"long":6.9541}},"1892":{"city":"Lavey-Village","zipCode":1892,"lat":46.2213,"long":7.0148,"closestMainCity":{"city":"Monthey","zipCode":1870,"lat":46.2545,"long":6.9541}},"1893":{"city":"Muraz (Collombey)","zipCode":1893,"lat":46.2842,"long":6.9334,"closestMainCity":{"city":"Monthey","zipCode":1870,"lat":46.2545,"long":6.9541}},"1895":{"city":"Vionnaz","zipCode":1895,"lat":46.311,"long":6.9006,"closestMainCity":{"city":"Monthey","zipCode":1870,"lat":46.2545,"long":6.9541}},"1896":{"city":"Vouvry","zipCode":1896,"lat":46.3375,"long":6.8895,"closestMainCity":{"city":"Monthey","zipCode":1870,"lat":46.2545,"long":6.9541}},"1897":{"city":"Les Evouettes","zipCode":1897,"lat":46.362,"long":6.8767,"closestMainCity":{"city":"Montreux","zipCode":1820,"lat":46.433,"long":6.9114}},"1898":{"city":"St-Gingolph","zipCode":1898,"lat":46.3922,"long":6.8059,"closestMainCity":{"city":"Montreux","zipCode":1820,"lat":46.433,"long":6.9114}},"1899":{"city":"Torgon","zipCode":1899,"lat":46.3195,"long":6.8753,"closestMainCity":{"city":"Monthey","zipCode":1870,"lat":46.2545,"long":6.9541}},"1902":{"city":"Evionnaz","zipCode":1902,"lat":46.181,"long":7.0223,"closestMainCity":{"city":"Martigny","zipCode":1920,"lat":46.1028,"long":7.0724}},"1903":{"city":"Collonges","zipCode":1903,"lat":46.172,"long":7.0343,"closestMainCity":{"city":"Martigny","zipCode":1920,"lat":46.1028,"long":7.0724}},"1904":{"city":"Vernayaz","zipCode":1904,"lat":46.1367,"long":7.0391,"closestMainCity":{"city":"Martigny","zipCode":1920,"lat":46.1028,"long":7.0724}},"1905":{"city":"Dorénaz","zipCode":1905,"lat":46.1489,"long":7.0429,"closestMainCity":{"city":"Martigny","zipCode":1920,"lat":46.1028,"long":7.0724}},"1906":{"city":"Charrat","zipCode":1906,"lat":46.1249,"long":7.1314,"closestMainCity":{"city":"Martigny","zipCode":1920,"lat":46.1028,"long":7.0724}},"1907":{"city":"Saxon","zipCode":1907,"lat":46.1494,"long":7.1751,"closestMainCity":{"city":"Martigny","zipCode":1920,"lat":46.1028,"long":7.0724}},"1908":{"city":"Riddes","zipCode":1908,"lat":46.1728,"long":7.2236,"closestMainCity":{"city":"Sion","zipCode":1950,"lat":46.2274,"long":7.3556}},"1911":{"city":"Mayens-de-Chamoson","zipCode":1911,"lat":46.2034,"long":7.1843,"closestMainCity":{"city":"Sion","zipCode":1950,"lat":46.2274,"long":7.3556}},"1912":{"city":"Produit (Leytron)","zipCode":1912,"lat":46.1858,"long":7.1942,"closestMainCity":{"city":"Martigny","zipCode":1920,"lat":46.1028,"long":7.0724}},"1913":{"city":"Saillon","zipCode":1913,"lat":46.1703,"long":7.1877,"closestMainCity":{"city":"Martigny","zipCode":1920,"lat":46.1028,"long":7.0724}},"1914":{"city":"Isérables","zipCode":1914,"lat":46.1623,"long":7.2447,"closestMainCity":{"city":"Sion","zipCode":1950,"lat":46.2274,"long":7.3556}},"1918":{"city":"La Tzoumaz","zipCode":1918,"lat":46.1448,"long":7.233,"closestMainCity":{"city":"Sion","zipCode":1950,"lat":46.2274,"long":7.3556}},"1919":{"city":"Martigny Mutuel","zipCode":1919,"lat":46.1072,"long":7.081,"closestMainCity":{"city":"Martigny","zipCode":1920,"lat":46.1028,"long":7.0724}},"1920":{"city":"Martigny","zipCode":1920,"lat":46.1028,"long":7.0724,"closestMainCity":{"city":"Martigny","zipCode":1920,"lat":46.1028,"long":7.0724}},"1921":{"city":"Martigny-Croix","zipCode":1921,"lat":46.086,"long":7.0513,"closestMainCity":{"city":"Martigny","zipCode":1920,"lat":46.1028,"long":7.0724}},"1922":{"city":"Salvan","zipCode":1922,"lat":46.1189,"long":7.0208,"closestMainCity":{"city":"Martigny","zipCode":1920,"lat":46.1028,"long":7.0724}},"1923":{"city":"Le Trétien","zipCode":1923,"lat":46.1022,"long":6.9993,"closestMainCity":{"city":"Martigny","zipCode":1920,"lat":46.1028,"long":7.0724}},"1925":{"city":"Finhaut","zipCode":1925,"lat":46.0838,"long":6.9778,"closestMainCity":{"city":"Martigny","zipCode":1920,"lat":46.1028,"long":7.0724}},"1926":{"city":"Fully","zipCode":1926,"lat":46.1385,"long":7.1147,"closestMainCity":{"city":"Martigny","zipCode":1920,"lat":46.1028,"long":7.0724}},"1927":{"city":"Chemin","zipCode":1927,"lat":46.0895,"long":7.0963,"closestMainCity":{"city":"Martigny","zipCode":1920,"lat":46.1028,"long":7.0724}},"1928":{"city":"Ravoire","zipCode":1928,"lat":46.1007,"long":7.0458,"closestMainCity":{"city":"Martigny","zipCode":1920,"lat":46.1028,"long":7.0724}},"1929":{"city":"Trient","zipCode":1929,"lat":46.058,"long":6.994,"closestMainCity":{"city":"Martigny","zipCode":1920,"lat":46.1028,"long":7.0724}},"1932":{"city":"Bovernier","zipCode":1932,"lat":46.079,"long":7.0858,"closestMainCity":{"city":"Martigny","zipCode":1920,"lat":46.1028,"long":7.0724}},"1933":{"city":"Vens (Sembrancher)","zipCode":1933,"lat":46.0959,"long":7.1535,"closestMainCity":{"city":"Martigny","zipCode":1920,"lat":46.1028,"long":7.0724}},"1934":{"city":"Bruson","zipCode":1934,"lat":46.066,"long":7.2183,"closestMainCity":{"city":"Martigny","zipCode":1920,"lat":46.1028,"long":7.0724}},"1936":{"city":"Verbier","zipCode":1936,"lat":46.1002,"long":7.2265,"closestMainCity":{"city":"Martigny","zipCode":1920,"lat":46.1028,"long":7.0724}},"1937":{"city":"Orsières","zipCode":1937,"lat":46.029,"long":7.1444,"closestMainCity":{"city":"Martigny","zipCode":1920,"lat":46.1028,"long":7.0724}},"1938":{"city":"Champex-Lac","zipCode":1938,"lat":45.9723,"long":7.1015,"closestMainCity":{"city":"Martigny","zipCode":1920,"lat":46.1028,"long":7.0724}},"1941":{"city":"Cries (Vollèges)","zipCode":1941,"lat":46.092,"long":7.1755,"closestMainCity":{"city":"Martigny","zipCode":1920,"lat":46.1028,"long":7.0724}},"1942":{"city":"Levron","zipCode":1942,"lat":46.1002,"long":7.1638,"closestMainCity":{"city":"Martigny","zipCode":1920,"lat":46.1028,"long":7.0724}},"1943":{"city":"Praz-de-Fort","zipCode":1943,"lat":45.9878,"long":7.1226,"closestMainCity":{"city":"Martigny","zipCode":1920,"lat":46.1028,"long":7.0724}},"1944":{"city":"La Fouly VS","zipCode":1944,"lat":45.9336,"long":7.0977,"closestMainCity":{"city":"Martigny","zipCode":1920,"lat":46.1028,"long":7.0724}},"1945":{"city":"Liddes","zipCode":1945,"lat":45.9925,"long":7.1873,"closestMainCity":{"city":"Martigny","zipCode":1920,"lat":46.1028,"long":7.0724}},"1946":{"city":"Bourg-St-Pierre","zipCode":1946,"lat":45.9488,"long":7.2077,"closestMainCity":{"city":"Martigny","zipCode":1920,"lat":46.1028,"long":7.0724}},"1947":{"city":"Champsec","zipCode":1947,"lat":46.0581,"long":7.243,"closestMainCity":{"city":"Martigny","zipCode":1920,"lat":46.1028,"long":7.0724}},"1948":{"city":"Lourtier","zipCode":1948,"lat":46.0488,"long":7.2668,"closestMainCity":{"city":"Martigny","zipCode":1920,"lat":46.1028,"long":7.0724}},"1950":{"city":"Sion","zipCode":1950,"lat":46.2274,"long":7.3556,"closestMainCity":{"city":"Sion","zipCode":1950,"lat":46.2274,"long":7.3556}},"1951":{"city":"Sion","zipCode":1951,"lat":46.2304,"long":7.3661,"closestMainCity":{"city":"Sion","zipCode":1950,"lat":46.2274,"long":7.3556}},"1955":{"city":"Némiaz (Chamoson)","zipCode":1955,"lat":46.2123,"long":7.2235,"closestMainCity":{"city":"Sion","zipCode":1950,"lat":46.2274,"long":7.3556}},"1957":{"city":"Ardon","zipCode":1957,"lat":46.2095,"long":7.2601,"closestMainCity":{"city":"Sion","zipCode":1950,"lat":46.2274,"long":7.3556}},"1958":{"city":"St-Léonard","zipCode":1958,"lat":46.2515,"long":7.4171,"closestMainCity":{"city":"Sion","zipCode":1950,"lat":46.2274,"long":7.3556}},"1961":{"city":"Vernamiège","zipCode":1961,"lat":46.2117,"long":7.4313,"closestMainCity":{"city":"Sion","zipCode":1950,"lat":46.2274,"long":7.3556}},"1962":{"city":"Pont-de-la-Morge (Sion)","zipCode":1962,"lat":46.226,"long":7.3139,"closestMainCity":{"city":"Sion","zipCode":1950,"lat":46.2274,"long":7.3556}},"1963":{"city":"Vétroz","zipCode":1963,"lat":46.2217,"long":7.2786,"closestMainCity":{"city":"Sion","zipCode":1950,"lat":46.2274,"long":7.3556}},"1964":{"city":"Conthey","zipCode":1964,"lat":46.2237,"long":7.3028,"closestMainCity":{"city":"Sion","zipCode":1950,"lat":46.2274,"long":7.3556}},"1965":{"city":"Mayens-de-la-Zour (Savièse)","zipCode":1965,"lat":46.2698,"long":7.3569,"closestMainCity":{"city":"Sion","zipCode":1950,"lat":46.2274,"long":7.3556}},"1966":{"city":"Botyre (Ayent)","zipCode":1966,"lat":46.2753,"long":7.406,"closestMainCity":{"city":"Sion","zipCode":1950,"lat":46.2274,"long":7.3556}},"1967":{"city":"Bramois","zipCode":1967,"lat":46.2324,"long":7.4007,"closestMainCity":{"city":"Sion","zipCode":1950,"lat":46.2274,"long":7.3556}},"1968":{"city":"Mase","zipCode":1968,"lat":46.1952,"long":7.4347,"closestMainCity":{"city":"Sion","zipCode":1950,"lat":46.2274,"long":7.3556}},"1969":{"city":"Liez (St-Martin)","zipCode":1969,"lat":46.1615,"long":7.451,"closestMainCity":{"city":"Sion","zipCode":1950,"lat":46.2274,"long":7.3556}},"1971":{"city":"Grimisuat","zipCode":1971,"lat":46.2594,"long":7.3841,"closestMainCity":{"city":"Sion","zipCode":1950,"lat":46.2274,"long":7.3556}},"1972":{"city":"Anzère","zipCode":1972,"lat":46.2956,"long":7.3962,"closestMainCity":{"city":"Sion","zipCode":1950,"lat":46.2274,"long":7.3556}},"1973":{"city":"Nax","zipCode":1973,"lat":46.2282,"long":7.431,"closestMainCity":{"city":"Sion","zipCode":1950,"lat":46.2274,"long":7.3556}},"1974":{"city":"Arbaz","zipCode":1974,"lat":46.2781,"long":7.3854,"closestMainCity":{"city":"Sion","zipCode":1950,"lat":46.2274,"long":7.3556}},"1975":{"city":"St-Séverin","zipCode":1975,"lat":46.2349,"long":7.3007,"closestMainCity":{"city":"Sion","zipCode":1950,"lat":46.2274,"long":7.3556}},"1976":{"city":"Aven","zipCode":1976,"lat":46.2376,"long":7.2731,"closestMainCity":{"city":"Sion","zipCode":1950,"lat":46.2274,"long":7.3556}},"1977":{"city":"Icogne","zipCode":1977,"lat":46.2919,"long":7.4405,"closestMainCity":{"city":"Sierre","zipCode":3960,"lat":46.2919,"long":7.5356}},"1978":{"city":"Lens","zipCode":1978,"lat":46.283,"long":7.4498,"closestMainCity":{"city":"Sierre","zipCode":3960,"lat":46.2919,"long":7.5356}},"1981":{"city":"Vex","zipCode":1981,"lat":46.2124,"long":7.3983,"closestMainCity":{"city":"Sion","zipCode":1950,"lat":46.2274,"long":7.3556}},"1982":{"city":"Euseigne","zipCode":1982,"lat":46.1721,"long":7.4231,"closestMainCity":{"city":"Sion","zipCode":1950,"lat":46.2274,"long":7.3556}},"1983":{"city":"Lanna","zipCode":1983,"lat":46.1333,"long":7.4833,"closestMainCity":{"city":"Sion","zipCode":1950,"lat":46.2274,"long":7.3556}},"1984":{"city":"La Tour VS","zipCode":1984,"lat":46.0982,"long":7.5057,"closestMainCity":{"city":"Sion","zipCode":1950,"lat":46.2274,"long":7.3556}},"1985":{"city":"La Sage","zipCode":1985,"lat":46.0997,"long":7.516,"closestMainCity":{"city":"Sion","zipCode":1950,"lat":46.2274,"long":7.3556}},"1986":{"city":"Arolla","zipCode":1986,"lat":46.0254,"long":7.4836,"closestMainCity":{"city":"Sion","zipCode":1950,"lat":46.2274,"long":7.3556}},"1987":{"city":"Hérémence","zipCode":1987,"lat":46.1803,"long":7.4048,"closestMainCity":{"city":"Sion","zipCode":1950,"lat":46.2274,"long":7.3556}},"1988":{"city":"Les Collons","zipCode":1988,"lat":46.1818,"long":7.3864,"closestMainCity":{"city":"Sion","zipCode":1950,"lat":46.2274,"long":7.3556}},"1991":{"city":"Turin (Salins)","zipCode":1991,"lat":46.2155,"long":7.3541,"closestMainCity":{"city":"Sion","zipCode":1950,"lat":46.2274,"long":7.3556}},"1992":{"city":"Les Mayens-de-Sion","zipCode":1992,"lat":46.2857,"long":7.3361,"closestMainCity":{"city":"Sion","zipCode":1950,"lat":46.2274,"long":7.3556}},"1993":{"city":"Clèbes (Nendaz)","zipCode":1993,"lat":46.1875,"long":7.3375,"closestMainCity":{"city":"Sion","zipCode":1950,"lat":46.2274,"long":7.3556}},"1994":{"city":"Aproz (Nendaz)","zipCode":1994,"lat":46.2055,"long":7.3108,"closestMainCity":{"city":"Sion","zipCode":1950,"lat":46.2274,"long":7.3556}},"1996":{"city":"Baar (Nendaz)","zipCode":1996,"lat":46.2057,"long":7.3321,"closestMainCity":{"city":"Sion","zipCode":1950,"lat":46.2274,"long":7.3556}},"1997":{"city":"Siviez (Nendaz)","zipCode":1997,"lat":46.1366,"long":7.316,"closestMainCity":{"city":"Sion","zipCode":1950,"lat":46.2274,"long":7.3556}},"2000":{"city":"Neuchâtel","zipCode":2000,"lat":46.9918,"long":6.931,"closestMainCity":{"city":"Neuchâtel","zipCode":2000,"lat":46.9918,"long":6.931}},"2001":{"city":"Neuchâtel","zipCode":2001,"lat":47.0094,"long":6.9381,"closestMainCity":{"city":"Neuchâtel","zipCode":2000,"lat":46.9918,"long":6.931}},"2002":{"city":"Neuchâtel","zipCode":2002,"lat":47.0094,"long":6.9381,"closestMainCity":{"city":"Neuchâtel","zipCode":2000,"lat":46.9918,"long":6.931}},"2010":{"city":"Neuchâtel OFS","zipCode":2010,"lat":47.0094,"long":6.9381,"closestMainCity":{"city":"Neuchâtel","zipCode":2000,"lat":46.9918,"long":6.931}},"2012":{"city":"Auvernier","zipCode":2012,"lat":46.9755,"long":6.879,"closestMainCity":{"city":"Neuchâtel","zipCode":2000,"lat":46.9918,"long":6.931}},"2013":{"city":"Colombier NE","zipCode":2013,"lat":46.9663,"long":6.8648,"closestMainCity":{"city":"Neuchâtel","zipCode":2000,"lat":46.9918,"long":6.931}},"2014":{"city":"Bôle","zipCode":2014,"lat":46.966,"long":6.842,"closestMainCity":{"city":"Neuchâtel","zipCode":2000,"lat":46.9918,"long":6.931}},"2015":{"city":"Areuse","zipCode":2015,"lat":46.9535,"long":6.8538,"closestMainCity":{"city":"Neuchâtel","zipCode":2000,"lat":46.9918,"long":6.931}},"2016":{"city":"Cortaillod","zipCode":2016,"lat":46.9431,"long":6.8444,"closestMainCity":{"city":"Neuchâtel","zipCode":2000,"lat":46.9918,"long":6.931}},"2017":{"city":"Boudry","zipCode":2017,"lat":46.9499,"long":6.8376,"closestMainCity":{"city":"Neuchâtel","zipCode":2000,"lat":46.9918,"long":6.931}},"2019":{"city":"Chambrelien","zipCode":2019,"lat":46.9723,"long":6.8158,"closestMainCity":{"city":"Neuchâtel","zipCode":2000,"lat":46.9918,"long":6.931}},"2022":{"city":"Bevaix","zipCode":2022,"lat":46.9296,"long":6.8147,"closestMainCity":{"city":"Neuchâtel","zipCode":2000,"lat":46.9918,"long":6.931}},